,City,Lat,Lng,Max Temp,Humidity,Cloudiness,Wind Speed,Country,Date
0,Avarua,-21.2078,-159.775,82.4,69,75,3.44,CK,1619489093
1,Nishihara,26.1842,127.7558,77.0,53,75,12.66,JP,1619489192
2,Porto Santo,33.072,-16.3415,62.6,77,40,10.36,PT,1619489192
3,Saurimo,-9.6608,20.3916,65.88,89,97,3.02,AO,1619489192
4,Srīvardhan,18.0333,73.0167,82.42,77,18,1.1,IN,1619489193
5,Taltal,-25.4,-70.4833,62.31,81,0,4.21,CL,1619489193
6,Castro,-24.7911,-50.0119,56.34,91,2,3.02,BR,1619489193
7,Khatanga,71.9667,102.5,23.34,91,100,18.14,RU,1619489132
8,São Filipe,14.8961,-24.4956,72.18,75,98,8.95,CV,1619489194
9,Vaini,-21.2,-175.2,75.2,94,90,5.75,TO,1619489086
10,East London,-33.0153,27.9116,67.96,77,82,7.05,ZA,1619489194
11,New Norfolk,-42.7826,147.0587,64.99,73,19,1.99,AU,1619489194
12,Vao,-22.6667,167.4833,72.93,68,8,20.18,NC,1619489195
13,Mount Isa,-20.7333,139.5,86.0,32,24,13.8,AU,1619489195
14,Margate,51.3813,1.3862,43.0,81,100,8.75,GB,1619489195
15,Coquimbo,-29.9533,-71.3436,57.2,82,90,2.3,CL,1619488996
16,Vestmannaeyjar,63.4427,-20.2734,44.38,88,41,9.44,IS,1619489196
17,Lumberton,34.6182,-79.0086,64.4,59,1,6.53,US,1619489022
18,Gisborne,-38.6533,178.0042,57.0,90,77,14.0,NZ,1619489196
19,Punta Arenas,-53.15,-70.9167,42.8,100,90,6.91,CL,1619488922
20,Comodoro Rivadavia,-45.8667,-67.5,66.2,45,0,25.32,AR,1619489114
21,Hilo,19.7297,-155.09,80.6,57,20,9.22,US,1619488909
22,Port Alfred,-33.5906,26.891,66.85,86,94,16.6,ZA,1619489197
23,Shelburne,44.0787,-80.2041,44.01,50,100,5.79,CA,1619489197
24,Safi,32.2994,-9.2372,63.05,85,91,15.26,MA,1619489198
25,Tigil',57.8,158.6667,29.98,93,100,8.23,RU,1619489198
26,Thompson,55.7435,-97.8558,46.4,53,40,13.8,CA,1619489198
27,Hūn,29.1268,15.9477,69.03,29,6,8.77,LY,1619489198
28,Kapaa,22.0752,-159.319,77.0,65,20,8.05,US,1619489068
29,Tual,-5.6667,132.75,83.07,57,7,2.06,ID,1619489199
30,Hobart,-42.8794,147.3294,64.99,51,20,5.75,AU,1619489199
31,Cayenne,4.9333,-52.3333,75.99,100,75,4.61,GF,1619489200
32,Kaitangata,-46.2817,169.8464,46.99,77,99,4.0,NZ,1619489200
33,Constitución,-35.3333,-72.4167,57.56,65,0,7.02,CL,1619489200
34,Kavieng,-2.5744,150.7967,83.57,70,51,3.65,PG,1619489200
35,Rikitea,-23.1203,-134.9692,78.13,72,100,6.98,PF,1619488733
36,Torbay,47.6666,-52.7314,42.01,100,90,25.32,CA,1619489185
37,Albany,42.6001,-73.9662,45.0,41,9,3.0,US,1619489201
38,Atuona,-9.8,-139.0333,79.83,75,91,15.23,PF,1619489201
39,Ushuaia,-54.8,-68.3,42.8,81,75,2.3,AR,1619489079
40,Puerto Ayora,-0.7393,-90.3518,75.0,90,37,4.97,EC,1619489202
41,Qaanaaq,77.484,-69.3632,35.6,69,100,7.31,GL,1619489202
42,Biu,10.6129,12.1946,85.06,31,73,1.34,NG,1619489202
43,Anamur,36.0751,32.8369,55.4,88,0,5.75,TR,1619489203
44,Chui,-33.6971,-53.4616,53.47,81,0,7.38,UY,1619489203
45,Tasiilaq,65.6145,-37.6368,41.0,60,40,7.74,GL,1619489083
46,Hermanus,-34.4187,19.2345,61.0,88,98,2.66,ZA,1619489084
47,Tuktoyaktuk,69.4541,-133.0374,12.2,73,1,16.11,CA,1619489203
48,Jamestown,42.097,-79.2353,46.99,42,75,6.91,US,1619488984
49,Ouésso,1.6136,16.0517,70.68,95,99,1.05,CG,1619489204
50,Kyra,49.5776,111.9753,37.98,38,87,24.99,RU,1619489204
51,Busselton,-33.65,115.3333,73.0,78,50,1.01,AU,1619489204
52,Vila,42.0304,-8.1588,48.0,93,56,1.99,PT,1619489205
53,Presidencia Roque Sáenz Peña,-26.7852,-60.4388,57.99,87,0,4.14,AR,1619489205
54,Phan Thiet,10.9333,108.1,84.47,68,100,4.03,VN,1619489205
55,Sompeta,18.9333,84.6,85.66,60,1,11.23,IN,1619489206
56,Barrow,71.2906,-156.7887,21.2,68,1,17.27,US,1619489206
57,Maibong,25.3,93.1667,87.28,38,24,5.08,IN,1619489206
58,Lakes Entrance,-37.8811,147.981,62.01,67,21,1.99,AU,1619489207
59,Esperance,-33.8667,121.9,75.2,27,100,17.27,AU,1619489207
60,Lhokseumawe,5.1801,97.1507,80.01,80,100,4.12,ID,1619489207
61,Berbera,10.4396,45.0143,84.04,70,91,5.61,SO,1619489208
62,Saskylakh,71.9167,114.0833,11.41,89,28,4.83,RU,1619489208
63,Mandeville,18.0417,-77.5071,80.6,74,20,2.3,JM,1619489208
64,Mar del Plata,-38.0023,-57.5575,57.99,93,0,1.57,AR,1619489036
65,Hong Kong,22.2855,114.1577,75.0,87,100,13.62,HK,1619489209
66,Todos Santos,23.45,-110.2167,63.0,79,94,3.0,MX,1619489209
67,Salalah,17.0151,54.0924,80.6,74,20,2.3,OM,1619489209
68,Kruisfontein,-34.0033,24.7314,63.0,87,64,1.01,ZA,1619489210
69,Klaksvík,62.2266,-6.589,37.4,81,75,17.27,FO,1619489210
70,Forsytheganj,52.6333,29.7333,29.08,87,57,6.31,BY,1619489210
71,Marawi,7.9986,124.2928,82.99,79,99,5.99,PH,1619489211
72,Mataura,-46.1927,168.8643,48.99,62,82,10.0,NZ,1619489080
73,São João da Barra,-21.6403,-41.0511,72.99,93,16,9.78,BR,1619489128
74,Upernavik,72.7868,-56.1549,32.86,75,100,4.5,GL,1619489211
75,Bundaberg,-24.85,152.35,78.8,44,40,14.97,AU,1619489212
76,Deputatsky,69.3,139.9,28.31,96,100,2.68,RU,1619489212
77,Derbent,42.0678,48.2899,54.23,89,100,10.29,RU,1619489212
78,Eravur,7.7733,81.6095,80.76,78,15,5.39,LK,1619489213
79,Bluff,-46.6,168.3333,48.99,62,85,10.0,NZ,1619489088
80,São José da Coroa Grande,-8.8978,-35.1478,77.67,81,46,6.15,BR,1619489213
81,Guérande,47.3291,-2.4283,46.4,76,0,6.91,FR,1619489213
82,Tiksi,71.6872,128.8694,16.81,86,100,10.85,RU,1619489214
83,Cape Town,-33.9258,18.4232,63.0,94,75,12.66,ZA,1619489202
84,Warwick,41.7001,-71.4162,48.2,40,1,4.61,US,1619488977
85,Matamoros,25.5333,-103.25,89.6,8,75,13.06,MX,1619489057
86,La Ronge,55.1001,-105.2842,33.8,80,91,11.5,CA,1619489214
87,Nikolskoye,59.7035,30.7861,39.2,81,75,6.71,RU,1619489214
88,Lebu,-37.6167,-73.65,53.38,88,26,9.53,CL,1619489215
89,Elizabeth City,36.2946,-76.2511,55.99,58,1,4.61,US,1619489215
90,Port Elizabeth,-33.918,25.5701,62.6,88,0,18.41,ZA,1619489125
91,Awjilah,29.1081,21.2869,66.6,33,1,4.61,LY,1619489215
92,Haines Junction,60.7522,-137.5108,53.6,24,11,10.36,CA,1619489216
93,Srednekolymsk,67.45,153.6833,28.36,77,67,5.57,RU,1619489216
94,Arraial do Cabo,-22.9661,-42.0278,74.89,78,100,3.18,BR,1619489101
95,Butaritari,3.0707,172.7902,82.6,76,76,10.85,KI,1619489217
96,Praia da Vitória,38.7333,-27.0667,60.8,88,75,7.2,PT,1619489217
97,Tuatapere,-46.1333,167.6833,48.99,62,95,10.0,NZ,1619489217
98,Nome,64.5011,-165.4064,42.8,61,1,11.5,US,1619489217
99,Vestmanna,62.1564,-7.1664,37.4,81,75,17.27,FO,1619489218
100,Kudahuvadhoo,2.6708,72.8944,82.62,73,73,5.39,MV,1619489218
101,Carnarvon,-24.8667,113.6333,78.8,47,0,3.44,AU,1619489218
102,Alofi,-19.0595,-169.9187,86.0,74,73,12.66,NU,1619489219
103,Kirakira,-10.4544,161.9205,85.44,67,25,2.86,SB,1619488734
104,Grafton,42.207,-71.6856,46.4,34,1,8.05,US,1619489219
105,Arlit,18.7369,7.3853,88.25,10,69,7.38,NE,1619489219
106,Cabo San Lucas,22.8909,-109.9124,73.0,72,90,13.8,MX,1619489032
107,Iquitos,-3.7481,-73.2472,78.8,94,75,3.44,PE,1619489162
108,Poum,-20.2333,164.0167,76.89,68,35,21.65,NC,1619489220
109,Narsaq,60.9167,-46.05,35.6,93,75,5.75,GL,1619489111
110,Bredasdorp,-34.5322,20.0403,55.4,88,98,3.47,ZA,1619488973
111,Saldanha,-33.0117,17.9442,62.6,88,10,5.75,ZA,1619489189
112,Tabuk,17.4189,121.4443,80.42,66,99,1.68,PH,1619489220
113,Talavera de la Reina,39.9635,-4.8308,55.0,91,73,1.99,ES,1619489221
114,Mayya,61.7333,130.2811,35.6,75,75,8.95,RU,1619489221
115,Mercedes,-34.6515,-59.4307,55.99,73,11,4.85,AR,1619489222
116,Flinders,-34.5833,150.8552,73.0,62,2,3.0,AU,1619489222
117,Ténenkou,14.4572,-4.9169,87.75,25,5,2.62,ML,1619489222
118,Jipijapa,-1.3333,-80.5833,77.0,83,0,8.05,EC,1619489223
119,Dunkirk,51.05,2.3667,45.0,81,100,8.1,FR,1619489223
120,Mackay,-21.15,149.2,75.99,73,100,18.41,AU,1619489223
121,Mandalgovi,45.7625,106.2708,35.13,43,43,19.98,MN,1619489224
122,Chifeng,42.2683,118.9636,55.62,26,6,14.03,CN,1619489224
123,Chizhou,30.6578,117.4831,64.02,83,100,2.39,CN,1619489224
124,Ende,-8.8432,121.6623,84.15,49,55,3.83,ID,1619489224
125,Port Lincoln,-34.7333,135.8667,68.09,57,0,6.31,AU,1619489127
126,Taoudenni,22.6783,-3.9836,88.38,14,9,10.38,ML,1619489225
127,Ancud,-41.8697,-73.8203,55.0,100,90,10.36,CL,1619489225
128,Shaunavon,49.6501,-108.4181,48.2,53,20,10.36,CA,1619489225
129,Tezu,27.9167,96.1667,91.11,16,4,2.53,IN,1619489226
130,Kumul,42.8,93.45,54.25,12,74,6.4,CN,1619489226
131,Severo-Kuril'sk,50.6789,156.125,32.18,98,100,16.98,RU,1619489226
132,Razdol'noye,43.55,131.9167,55.4,62,75,13.42,RU,1619489227
133,Kahului,20.8947,-156.47,82.4,61,40,9.22,US,1619489227
134,Sirte,31.2089,16.5887,67.33,45,13,14.12,LY,1619489227
135,Yellowknife,62.456,-114.3525,8.6,52,20,13.8,CA,1619489156
136,Teguise,29.0605,-13.564,64.4,77,20,3.44,ES,1619489228
137,Ljungby,56.8332,13.9408,27.0,86,90,1.14,SE,1619489228
138,Pevek,69.7008,170.3133,26.06,93,100,4.14,RU,1619489229
139,Magnor,59.9511,12.1996,30.0,69,0,5.75,SE,1619489229
140,Sarkand,45.41,79.9186,59.09,35,56,3.78,KZ,1619489229
141,Faanui,-16.4833,-151.75,81.25,68,69,4.88,PF,1619489230
142,Chokurdakh,70.6333,147.9167,26.71,83,97,2.28,RU,1619489230
143,Airai,-8.9266,125.4092,72.41,39,48,1.97,TL,1619489204
144,Talnakh,69.4865,88.3972,16.59,78,62,10.31,RU,1619489230
145,Bodden Town,19.2833,-81.25,82.4,74,0,2.3,KY,1619488996
146,Krasnoborsk,61.5598,45.934,38.79,94,98,3.89,RU,1619489231
147,Ambunti,-4.2365,142.8448,85.44,69,100,0.63,PG,1619489231
148,Vanimo,-2.6741,141.3028,85.96,65,4,4.72,PG,1619489231
149,Hamilton,39.1834,-84.5333,64.4,71,1,7.02,US,1619489232
150,Eirunepé,-6.6603,-69.8736,70.95,98,63,2.64,BR,1619489232
151,Saint Paul Harbor,57.79,-152.4072,42.8,87,90,17.27,US,1619489232
152,San Patricio,28.017,-97.5169,78.8,78,90,14.97,US,1619489233
153,Bereket,39.2446,55.5154,76.95,29,100,1.74,TM,1619489233
154,Oyotún,-6.8519,-79.3036,75.99,71,76,2.66,PE,1619489233
155,Zhifang,30.35,114.3167,62.6,94,100,4.47,CN,1619489234
156,Coyhaique,-45.5752,-72.0662,53.6,82,75,10.36,CL,1619489234
157,Marzuq,14.4,46.4667,71.13,60,97,1.5,YE,1619489207
158,Kirillov,59.863,38.3813,34.18,98,100,4.32,RU,1619489234
159,Takoradze,4.8845,-1.7554,80.69,87,100,6.35,GH,1619489235
160,Emmett,43.8735,-116.4993,44.01,89,100,7.85,US,1619489235
161,Souillac,-20.5167,57.5167,75.2,94,75,8.05,MU,1619489097
162,Shakawe,-18.3667,21.85,64.6,55,47,3.09,BW,1619489236
163,Vardø,70.3705,31.1107,32.97,57,98,16.13,NO,1619489236
164,Winslow,35.0242,-110.6974,62.6,13,1,20.71,US,1619489236
165,Tete,-16.1564,33.5867,77.0,78,20,4.18,MZ,1619489237
166,Bethel,41.3712,-73.414,50.0,32,1,4.41,US,1619489237
167,Surat,21.1667,72.8333,86.0,74,20,9.22,IN,1619489032
168,Laibin,23.7,109.2667,66.78,88,100,6.96,CN,1619489237
169,Whitley Bay,55.0397,-1.4471,46.0,87,89,5.75,GB,1619489238
170,Winder,33.9926,-83.7202,62.6,72,1,3.44,US,1619489238
171,Brooks,50.5834,-111.8851,60.8,21,4,5.75,CA,1619489164
172,Christchurch,-43.5333,172.6333,55.4,41,59,13.8,NZ,1619489238
173,Bairiki Village,1.3292,172.9752,86.0,70,40,9.22,KI,1619489239
174,Viedma,-40.8135,-62.9967,57.97,51,0,9.84,AR,1619489239
175,Tautira,-17.7333,-149.15,86.0,62,40,4.61,PF,1619489239
176,Touros,-5.1989,-35.4608,77.0,83,20,3.44,BR,1619489240
177,Saint-Louis,16.3333,-15.0,74.43,36,6,13.98,SN,1619489240
178,Aklavik,68.2191,-135.0107,23.0,42,87,9.22,CA,1619489240
179,Yumen,40.2833,97.2,45.73,15,95,1.52,CN,1619489241
180,Nyagan,62.1406,65.3936,36.19,96,100,5.53,RU,1619489241
181,Gold Coast,-28.0,153.4333,78.01,53,40,13.8,AU,1619489241
182,Departamento de Maldonado,-34.6667,-54.9167,62.01,67,20,13.8,UY,1619489241
183,Tynda,55.1667,124.7167,37.24,96,100,6.76,RU,1619489242
184,Yenagoa,4.9247,6.2642,78.13,90,100,4.52,NG,1619489242
185,Westport,41.1415,-73.3579,51.8,30,1,9.22,US,1619489242
186,Inuvik,68.3499,-133.7218,23.0,42,61,9.22,CA,1619489243
187,Ribeira Grande,38.5167,-28.7,60.58,84,100,3.13,PT,1619489243
188,Bahía Honda,22.9036,-83.1592,76.57,81,24,7.38,CU,1619489243
189,Nelson Bay,-32.7167,152.15,69.8,64,40,4.61,AU,1619489244
190,Ixtapa,20.7,-105.2,78.01,83,75,6.91,MX,1619489244
191,Quatre Cocos,-20.2078,57.7625,75.99,94,75,8.05,MU,1619489092
192,Port Antonio,18.18,-76.4612,80.6,78,40,3.44,JM,1619489244
193,Celestún,20.8667,-90.4,81.09,75,0,15.52,MX,1619489245
194,Novoagansk,61.9449,76.6625,39.16,76,48,8.77,RU,1619489245
195,Mogwase,-25.185,27.2665,56.37,22,5,2.89,ZA,1619489245
196,Jos,9.9167,8.9,72.27,49,37,4.81,NG,1619489246
197,Sinnamary,5.3833,-52.95,77.18,90,100,10.69,GF,1619489246
198,Faya,18.3851,42.4509,57.2,82,0,2.53,SA,1619489246
199,Paamiut,61.994,-49.6678,34.7,88,9,3.11,GL,1619489247
200,Burns Lake,54.2331,-125.7533,59.0,20,0,10.36,CA,1619489247
201,Sitka,57.0531,-135.33,50.0,66,75,5.57,US,1619489247
202,Cidreira,-30.1811,-50.2056,62.22,78,1,9.6,BR,1619489136
203,Capâo Bonito,-24.0058,-48.3494,61.81,98,100,5.46,BR,1619489248
204,Diapaga,12.0708,1.7889,88.29,37,92,4.47,BF,1619489248
205,Atar,20.5169,-13.0499,78.58,18,17,3.94,MR,1619489248
206,Taunggyi,20.7833,97.0333,73.36,63,5,2.35,MM,1619489249
207,Cherskiy,68.75,161.3,25.21,76,51,6.58,RU,1619489249
208,Mana,5.6592,-53.7767,77.34,89,100,10.65,GF,1619489249
209,Bambous Virieux,-20.3428,57.7575,75.99,94,75,8.05,MU,1619489250
210,Noumea,-22.2763,166.4572,78.8,57,75,17.27,NC,1619489183
211,Moose Factory,51.2585,-80.6094,44.6,42,1,8.05,CA,1619489250
212,El Salvador,13.8333,-88.9167,80.6,89,40,2.3,SV,1619489250
213,Aquiraz,-3.9014,-38.3911,82.4,78,75,8.05,BR,1619489251
214,Kieta,-6.2167,155.6333,85.21,71,81,3.11,PG,1619489251
215,Mahébourg,-20.4081,57.7,75.2,94,75,8.05,MU,1619489251
216,Honningsvåg,70.9821,25.9704,32.41,66,100,13.06,NO,1619489252
217,Northam,51.0333,-4.2167,43.0,21,27,3.11,GB,1619489252
218,Ţahţā,26.7693,31.5021,66.2,42,0,6.91,EG,1619489253
219,Ust-Maya,60.4167,134.5333,35.89,98,100,1.05,RU,1619489253
220,Hithadhoo,-0.6,73.0833,82.47,61,4,2.95,MV,1619489253
221,Lakeside,30.13,-81.7682,71.01,78,40,8.05,US,1619489225
222,Sarankhola,22.3082,89.7897,88.34,54,12,6.2,BD,1619489254
223,Pokaran,26.9167,71.9167,85.28,22,0,9.01,IN,1619489254
224,Boulsa,12.6675,-0.5758,91.6,26,99,8.1,BF,1619489254
225,Kez,57.8979,53.7152,34.02,86,6,8.08,RU,1619489255
226,Bengkulu,-3.8004,102.2655,82.17,69,35,1.1,ID,1619489255
227,Havelock,34.8791,-76.9013,62.01,88,1,5.12,US,1619489180
228,Sohag,26.557,31.6948,66.2,42,0,6.91,EG,1619489255
229,Poso,-1.3959,120.7524,86.23,62,87,3.06,ID,1619489256
230,Tazovsky,67.4667,78.7,31.69,94,67,14.52,RU,1619489256
231,Itarantim,-15.6597,-40.0656,66.74,95,22,1.25,BR,1619489256
232,Umeå,63.8284,20.2597,30.2,80,0,4.72,SE,1619489256
233,Agadez,19.75,10.25,84.88,12,5,7.25,NE,1619489205
234,Kamaishi,39.2667,141.8833,51.8,37,0,3.44,JP,1619489257
235,Dingle,10.9995,122.6711,86.27,57,33,10.42,PH,1619489257
236,Hauterive,46.0901,3.4459,48.2,81,0,2.3,FR,1619489257
237,Saint-Philippe,-21.3585,55.7679,77.0,73,90,20.71,RE,1619489258
238,Qingdao,36.0986,120.3719,62.6,72,75,8.95,CN,1619489258
239,Benguela,-12.5763,13.4055,78.42,75,51,4.54,AO,1619489259
240,Kaunas,54.9,23.9,32.0,86,90,4.61,LT,1619489259
241,Yerofey Pavlovich,53.9667,121.9667,45.43,80,100,11.23,RU,1619489259
242,Torres,-29.3353,-49.7269,60.22,75,0,8.1,BR,1619489259
243,Brisbane,-27.4679,153.0281,79.0,56,40,11.5,AU,1619488987
244,Nouakchott,18.0858,-15.9785,69.8,78,76,10.36,MR,1619489260
245,Manta,-0.95,-80.7333,77.0,83,0,8.05,EC,1619489260
246,Linxia Chengguanzhen,35.6003,103.2064,44.91,39,100,2.37,CN,1619489261
247,Alekseyevsk,57.8406,108.3492,27.12,63,100,8.84,RU,1619489261
248,Pangody,65.85,74.4859,33.44,98,100,17.81,RU,1619489261
249,Vilhena,-12.7406,-60.1458,65.88,90,26,2.91,BR,1619489261
250,Nantucket,41.2835,-70.0995,45.0,75,1,4.61,US,1619489262
251,San Vicente,-26.6167,-54.1333,49.33,78,0,3.02,AR,1619489262
252,Selma,36.5708,-119.6121,66.2,24,40,13.8,US,1619489262
253,Saryozek,44.3583,77.9753,59.74,35,7,6.06,KZ,1619489263
254,Koslan,63.4564,48.8989,37.53,95,100,4.68,RU,1619489263
255,Yendi,9.4427,-0.0099,79.79,69,100,4.65,GH,1619489263
256,Villa Vicente Guerrero,19.1194,-98.1708,68.18,43,91,5.35,MX,1619489264
257,Mossamedes,-15.1961,12.1522,74.14,74,4,7.47,AO,1619489264
258,Saint George,37.1041,-113.5841,57.0,54,1,11.5,US,1619489260
259,San Luis,-33.295,-66.3356,57.16,67,0,4.85,AR,1619489264
260,Casablanca,33.5928,-7.6192,60.8,82,75,12.66,MA,1619489144
261,Honiara,-9.4333,159.95,84.99,75,96,3.96,SB,1619489257
262,Hastings,50.8552,0.5729,37.99,90,100,1.99,GB,1619489265
263,College,64.8569,-147.8028,51.8,37,20,20.71,US,1619489265
264,Whitehorse,60.7161,-135.0538,59.0,21,40,16.11,CA,1619489265
265,Norman Wells,65.282,-126.8329,19.4,35,75,4.61,CA,1619489266
266,Valledupar,10.4631,-73.2532,81.18,64,68,8.9,CO,1619489142
267,Poya,-21.35,165.15,75.74,66,56,13.27,NC,1619489266
268,Eatonton,33.3268,-83.3885,64.4,82,1,5.28,US,1619489021
269,Alberton,46.8168,-64.0654,42.8,87,100,13.8,CA,1619489267
270,Neumünster,54.0667,9.9833,30.99,89,0,6.2,DE,1619489267
271,Zhezkazgan,47.8043,67.7144,56.75,36,87,10.38,KZ,1619489267
272,Abu Samrah,35.3029,37.1841,57.13,83,0,11.63,SY,1619489267
273,Prieska,-29.6641,22.7474,60.62,57,80,9.86,ZA,1619489268
274,Tura,25.5198,90.2201,86.99,34,94,7.92,IN,1619489268
275,Makakilo City,21.3469,-158.0858,80.6,57,90,11.5,US,1619489268
276,Lufilufi,-13.8745,-171.5986,84.2,84,75,8.05,WS,1619489269
277,Danielskuil,-28.1887,23.5395,56.48,36,91,8.21,ZA,1619489269
278,Heihe,50.2441,127.4902,53.6,66,40,17.9,CN,1619489269
279,Kemijärvi,66.7131,27.4306,27.61,97,100,3.71,FI,1619489270
280,Cap Malheureux,-19.9842,57.6142,75.99,85,100,7.0,MU,1619489270
281,Berdigestyakh,62.0989,126.6992,26.65,77,100,10.04,RU,1619489270
282,Sur,22.5667,59.5289,84.69,38,16,5.79,OM,1619489270
283,Kirovskiy,45.0917,133.5136,58.86,40,100,7.92,RU,1619489271
284,Petropavlovsk-Kamchatskiy,53.0452,158.6483,33.8,100,90,2.24,RU,1619489271
285,Beloha,-25.1667,45.05,69.82,74,0,5.41,MG,1619489271
286,Baykit,61.67,96.37,35.51,70,19,3.85,RU,1619489272
287,Matara,5.9485,80.5353,80.04,85,83,2.73,LK,1619489272
288,Porto-Novo,6.4965,2.6036,84.2,84,40,12.66,BJ,1619489094
289,Buchanan,5.8808,-10.0467,79.86,82,23,4.59,LR,1619489272
290,Geraldton,-28.7667,114.6,75.2,31,25,5.75,AU,1619489133
291,Senneterre,48.3835,-77.2328,35.6,48,40,4.61,CA,1619489273
292,Labuhan,-6.8844,112.2051,82.67,74,33,6.26,ID,1619489273
293,George Town,5.4112,100.3354,79.0,89,20,2.3,MY,1619489142
294,Hualmay,-11.0964,-77.6139,66.0,89,3,9.93,PE,1619489273
295,Mankono,8.0586,-6.1897,74.93,83,24,3.6,CI,1619489274
296,Padang,-0.9492,100.3543,80.6,83,75,4.61,ID,1619489274
297,Ilulissat,69.2167,-51.1,39.2,65,20,5.75,GL,1619489104
298,Acapulco de Juárez,16.8634,-99.8901,82.4,69,75,12.66,MX,1619489275
299,Havre-St-Pierre,50.2334,-63.5986,44.6,93,90,19.57,CA,1619489275
300,Esna,25.2934,32.554,71.6,46,0,5.75,EG,1619489275
301,Ponta do Sol,32.6667,-17.1,59.0,77,68,1.99,PT,1619489275
302,Estelle,29.8458,-90.1067,71.6,88,75,8.05,US,1619489276
303,Sharjah city,25.3573,55.4033,84.2,23,0,3.44,AE,1619489276
304,Warrnambool,-38.3833,142.4833,57.99,93,78,4.74,AU,1619489276
305,Fortuna,40.5982,-124.1573,55.0,62,1,11.5,US,1619489277
306,Lompoc,34.6391,-120.4579,53.6,71,0,14.97,US,1619489277
307,Hasaki,35.7333,140.8333,64.0,51,75,6.91,JP,1619489095
308,Dikson,73.5069,80.5464,31.78,98,100,17.47,RU,1619489277
309,Iqaluit,63.7506,-68.5145,23.0,80,90,17.27,CA,1619489278
310,Ankazobe,-18.3167,47.1167,60.8,94,75,5.75,MG,1619489278
311,Suntar,62.1444,117.6319,24.44,63,100,8.61,RU,1619489279
312,Urucará,-2.5364,-57.76,72.95,98,100,1.1,BR,1619489279
313,Maumere,-8.6199,122.2111,83.71,49,16,4.85,ID,1619489279
314,Pringsewu,-5.3582,104.9744,84.07,68,13,2.66,ID,1619489280
315,Chumikan,54.7183,135.315,34.29,86,100,9.48,RU,1619489280
316,Lavumisa,-27.31,31.892,61.56,83,40,3.27,SZ,1619489280
317,Puerto Carreño,6.189,-67.4859,81.05,73,76,3.09,CO,1619489281
318,Ciurea,47.05,27.5667,43.0,81,75,2.3,RO,1619489281
319,Muros,42.7762,-9.0603,53.01,91,20,1.99,ES,1619489281
320,Jinchang,38.4953,102.1739,46.29,19,79,10.07,CN,1619489282
321,Middle Island,40.8843,-72.9373,51.01,40,1,4.61,US,1619489105
322,Emba,48.8264,58.1442,58.87,50,36,9.64,KZ,1619489282
323,Yakeshi,49.2833,120.7333,40.23,49,100,24.29,CN,1619489282
324,Caravelas,-17.7125,-39.2481,75.54,81,54,6.67,BR,1619489283
325,Lüderitz,-26.6481,15.1594,59.47,83,28,7.96,NA,1619489149
326,Namatanai,-3.6667,152.4333,85.21,69,40,3.27,PG,1619489283
327,Ulety,51.3572,112.4849,38.1,56,48,19.1,RU,1619489283
328,Alice Springs,-23.7,133.8833,73.99,26,0,16.11,AU,1619489284
329,Jianning,27.8333,113.15,62.6,94,75,4.47,CN,1619489284
330,Clyde River,70.4692,-68.5914,24.8,100,90,2.3,CA,1619489284
331,Jacaltenango,15.6667,-91.7333,69.8,52,0,4.83,GT,1619489285
332,Saýat,38.7839,63.8803,64.4,36,0,6.91,TM,1619489285
333,Qaqortoq,60.7167,-46.0333,35.6,93,75,5.75,GL,1619489285
334,Diffa,13.3154,12.6113,84.24,18,10,11.3,NE,1619489285
335,Plyussa,58.4308,29.3654,35.85,98,100,5.35,RU,1619489286
336,Beidao,34.5686,105.8933,57.72,58,100,4.12,CN,1619489286
337,Vila Franca do Campo,37.7167,-25.4333,59.0,88,75,9.22,PT,1619489286
338,Teya,60.3778,92.6267,39.58,74,24,6.11,RU,1619489287
339,Dedovichi,57.5517,29.9502,33.48,97,100,7.61,RU,1619489287
340,Nerchinskiy Zavod,51.3088,119.61,38.98,80,100,9.01,RU,1619489287
341,Virden,39.5009,-89.7679,69.01,66,100,13.0,US,1619489288
342,Tanout,14.9709,8.8879,83.93,11,0,10.58,NE,1619489288
343,Kano,12.0001,8.5167,84.2,42,0,6.91,NG,1619489289
344,Durango,24.8333,-104.8333,72.07,18,100,13.76,MX,1619489020
345,Pacific Grove,36.6177,-121.9166,55.4,62,40,12.66,US,1619489156
346,Goderich,43.7501,-81.7165,44.6,53,100,10.36,CA,1619489289
347,Riyadh,24.6877,46.7219,75.2,22,0,9.31,SA,1619489269
348,Sørland,67.667,12.6934,36.99,56,37,16.84,NO,1619489290
349,Arrondissement de Bar-le-Duc,48.75,5.1667,42.8,49,0,4.61,FR,1619489290
350,San Quintín,30.4833,-115.95,56.98,75,100,7.99,MX,1619489290
351,Tuy Hoa,13.0833,109.3,85.33,66,100,4.27,VN,1619489290
352,Yerbogachën,61.2767,108.0108,24.06,57,53,7.99,RU,1619489291
353,Grindavik,63.8424,-22.4338,42.8,93,75,3.44,IS,1619489291
354,Codrington,-38.2667,141.9667,61.75,59,93,3.71,AU,1619489291
355,Neuquén,-38.9516,-68.0591,53.6,94,0,3.02,AR,1619489235
356,Calvinia,-31.4707,19.776,52.61,90,100,12.41,ZA,1619489292
357,Kavaratti,10.5669,72.642,84.42,72,7,7.56,IN,1619489165
358,Nanortalik,60.1432,-45.2371,34.12,93,80,10.04,GL,1619489292
359,Cheremkhovo,53.1561,103.0675,37.02,62,97,16.35,RU,1619489293
360,Chilca,-12.5211,-76.7372,66.2,77,0,14.97,PE,1619489293
361,Havøysund,70.9963,24.6622,26.6,86,40,3.44,NO,1619489293
362,Vieux-Habitants,16.0589,-61.7659,75.2,78,0,5.75,GP,1619489293
363,Udachny,66.4167,112.4,15.93,83,91,15.82,RU,1619489294
364,Boundiali,9.5217,-6.4869,77.47,77,100,5.06,CI,1619489294
365,Karligan,14.975,122.0456,79.3,76,100,15.03,PH,1619489294
366,Kushmurun,52.4503,64.6311,47.5,95,100,7.18,KZ,1619489295
367,Okhotsk,59.3833,143.3,27.14,80,100,4.38,RU,1619489295
368,Alterosa,-21.2492,-46.1431,62.56,67,100,1.07,BR,1619489295
369,Banmankhi,25.8833,87.1833,89.53,10,44,3.38,IN,1619489296
370,Mayo,38.8876,-76.5119,54.0,66,1,3.6,US,1619489192
371,Pisco,-13.7,-76.2167,64.99,91,3,8.01,PE,1619489296
372,Bathsheba,13.2167,-59.5167,78.8,65,40,14.97,BB,1619489153
373,Brusturoasa,46.5167,26.2,39.99,68,100,0.67,RO,1619489296
374,Monrovia,6.3005,-10.7969,79.88,83,51,5.3,LR,1619489297
375,Najrān,17.4924,44.1277,68.0,83,40,8.05,SA,1619489297
376,Naze,28.3667,129.4833,73.4,60,20,10.36,JP,1619489297
377,Brigantine,39.4101,-74.3646,53.01,46,1,3.44,US,1619489298
378,Vilyuysk,63.7553,121.6247,20.41,75,100,11.34,RU,1619489298
379,Eureka,40.8021,-124.1637,55.0,76,1,10.36,US,1619489298
380,Olafsvik,64.8945,-23.7142,42.69,67,0,6.73,IS,1619489299
381,Fukuechō,32.6881,128.8419,64.4,88,75,17.27,JP,1619489299
382,Guerrero Negro,27.9769,-114.0611,60.33,70,100,15.64,MX,1619489299
383,Camabatela,-8.1881,15.375,62.29,95,100,1.3,AO,1619489300
384,Meulaboh,4.1363,96.1285,80.4,81,97,3.09,ID,1619489300
385,Kahramanmaraş Province,38.0,37.0,60.8,67,0,6.91,TR,1619489300
386,Ngunguru,-35.6167,174.5,70.0,62,66,1.99,NZ,1619489300
387,San Cristobal,7.7669,-72.225,78.8,94,75,11.5,VE,1619489075
388,Biltine,14.5333,20.9167,80.24,9,8,8.68,TD,1619489301
389,Saint Anthony,45.0205,-93.218,48.0,81,90,9.22,US,1619489301
390,Valley City,46.9233,-98.0032,44.6,100,90,3.44,US,1619489021
391,Yar-Sale,66.8333,70.8333,32.49,97,100,12.01,RU,1619489302
392,Charlton,42.1357,-71.9701,46.4,34,1,8.05,US,1619489144
393,Ji’an,27.1172,114.9793,64.9,88,100,3.56,CN,1619489302
394,Moramanga,-18.9333,48.2,63.39,99,100,4.12,MG,1619489303
395,Van,38.4924,43.3831,60.8,39,75,16.11,TR,1619489303
396,Rāiganj,25.6167,88.1167,89.24,11,43,3.27,IN,1619489303
397,Alta Floresta,-9.8756,-56.0861,73.4,100,0,2.3,BR,1619489304
398,Kendari,-3.945,122.4989,82.02,78,15,3.33,ID,1619489304
399,Ashland,40.8167,-82.2665,60.8,36,1,13.8,US,1619489043
400,Antofagasta,-23.65,-70.4,60.8,67,0,1.14,CL,1619489163
401,Alpena,45.0617,-83.4327,37.99,75,90,10.36,US,1619489175
402,Bata,1.8639,9.7658,77.0,100,75,4.79,GQ,1619489304
403,Bhādāsar,28.2833,74.3167,86.95,10,0,10.27,IN,1619489305
404,Tokur,53.1333,132.9,49.1,41,96,6.82,RU,1619489305
405,Rapid Valley,44.0625,-103.1463,54.0,82,20,10.36,US,1619489264
406,Port Shepstone,-30.7414,30.455,67.37,55,79,7.49,ZA,1619489306
407,Zaoyang,32.1272,112.7542,68.81,68,100,6.53,CN,1619489306
408,General Roca,-39.0333,-67.5833,53.6,94,0,3.53,AR,1619489306
409,Henties Bay,-22.116,14.2845,61.0,90,2,1.99,NA,1619489307
410,San-Pédro,4.7485,-6.6363,79.18,89,86,6.24,CI,1619489307
411,Dzhebariki-Khaya,62.2167,135.8,34.23,100,100,3.91,RU,1619489307
412,Tuskegee,32.424,-85.6916,64.99,100,100,4.56,US,1619489307
413,Provideniya,64.3833,-173.3,39.2,65,0,5.28,RU,1619489308
414,Leningradskiy,69.3833,178.4167,31.95,86,93,3.89,RU,1619489308
415,Corning,42.1428,-77.0547,41.0,52,1,0.83,US,1619489308
416,Sungai Penuh,-2.0833,101.3833,74.62,71,27,1.34,ID,1619489309
417,Ati,13.2154,18.3353,84.6,8,91,14.94,TD,1619489309
418,Sisimiut,66.9395,-53.6735,33.69,99,100,6.51,GL,1619489309
419,Sakakah,29.9697,40.2064,68.0,32,0,11.5,SA,1619489310
420,Lewisporte,49.2499,-55.0482,41.0,70,90,27.63,CA,1619489310
421,Dörtyol,36.8616,36.2289,63.0,91,74,4.63,TR,1619489310
422,Soro,21.2881,86.6858,87.39,51,2,11.34,IN,1619489311
423,Fairbanks,64.8378,-147.7164,53.01,32,1,17.27,US,1619489170
424,Bandarbeyla,9.4942,50.8122,82.27,73,57,5.23,SO,1619489311
425,Omboué,-1.5746,9.2618,78.04,89,100,4.09,GA,1619489311
426,Longyearbyen,78.2186,15.6401,19.4,63,40,16.11,SJ,1619489312
427,Florence,43.7667,11.25,55.4,82,75,4.61,IT,1619489312
428,Kimbe,-5.5502,150.1429,89.15,58,24,5.84,PG,1619489312
429,Pontes e Lacerda,-15.2261,-59.3353,66.54,87,0,2.62,BR,1619489313
430,Puqi,29.7167,113.8833,62.82,86,100,4.79,CN,1619489313
431,Mersing,2.4312,103.8405,78.8,94,40,4.61,MY,1619489313
432,Beirut,33.8889,35.4944,66.2,77,75,11.5,LB,1619489224
433,Tingo María,-9.2895,-76.0088,69.84,98,95,1.16,PE,1619489314
434,Coahuayana Viejo,18.7333,-103.6833,74.01,75,100,2.08,MX,1619489090
435,Talcahuano,-36.7167,-73.1167,55.4,88,0,4.61,CL,1619489314
436,Malanje,-9.5402,16.341,62.64,91,92,0.25,AO,1619489314
437,Nicoya,10.1483,-85.452,82.4,57,0,10.36,CR,1619489315
438,Aswān,24.0934,32.907,73.63,29,0,12.62,EG,1619489315
439,Karratha,-20.7377,116.8463,85.51,18,0,14.94,AU,1619489316
440,La Romana,18.4273,-68.9728,69.8,100,40,5.75,DO,1619489316
441,Itarema,-2.9248,-39.9167,77.85,81,90,9.06,BR,1619489316
442,Cruzeiro do Sul,-29.5128,-51.9853,57.99,95,0,1.52,BR,1619489316
443,Gary,41.5934,-87.3464,69.8,37,1,9.22,US,1619489317
444,Lewiston,44.1003,-70.2148,39.99,56,1,12.66,US,1619489147
445,Ābādān,30.3392,48.3043,77.0,65,40,6.91,IR,1619489317
446,Homer,59.6425,-151.5483,53.6,32,1,13.8,US,1619489317
447,Huilong,31.8111,121.655,64.99,93,100,5.01,CN,1619489318
448,Palu,-0.8917,119.8707,90.07,57,37,2.06,ID,1619489318
449,Isangel,-19.55,169.2667,82.4,65,40,9.22,VU,1619489318
450,Tilichiki,60.4667,166.1,30.99,99,100,1.14,RU,1619489319
451,Kangaatsiaq,68.3065,-53.4641,32.04,97,100,18.05,GL,1619489265
452,Dauphin,51.1494,-100.0502,50.0,53,40,11.5,CA,1619489146
453,Valparaíso,-33.0393,-71.6273,55.0,84,0,4.05,CL,1619489319
454,Katherine,-14.4667,132.2667,87.8,55,40,14.97,AU,1619489320
455,Dapdap,12.062,125.4881,80.78,76,42,9.6,PH,1619489320
456,Lorengau,-2.0226,147.2712,85.62,67,29,3.13,PG,1619489320
457,Gunnedah,-30.9833,150.25,73.0,55,0,2.51,AU,1619489321
458,Mil'kovo,54.7167,158.6167,35.35,98,100,6.8,RU,1619489305
459,Dawei,14.0833,98.2,81.64,79,100,1.77,MM,1619489321
460,Georgiyevka,43.0369,74.7114,51.8,76,20,4.47,KZ,1619489171
461,Oberá,-27.4871,-55.1199,51.53,92,0,2.21,AR,1619489321
462,Loikaw,19.6742,97.2094,78.6,65,51,2.84,MM,1619489322
463,Qui Nhon,13.7667,109.2333,83.32,72,100,5.12,VN,1619489322
464,Camaçari,-12.6975,-38.3242,80.6,65,20,8.05,BR,1619489317
465,Río Gallegos,-51.6226,-69.2181,51.8,58,0,10.36,AR,1619489322
466,Zhigansk,66.7697,123.3711,17.55,84,100,15.48,RU,1619489223
467,Muroto-misakicho,33.2833,134.15,64.4,59,75,5.75,JP,1619489323
468,Mindif,10.3976,14.4363,89.49,31,31,1.41,CM,1619489323
469,Sabang,5.8933,95.3214,83.23,71,77,2.21,ID,1619489323
470,Atoka,34.4001,-96.0169,72.0,65,100,16.13,US,1619489324
471,Biak,-0.9131,122.8766,83.21,66,29,3.6,ID,1619489324
472,Virginia Beach,36.8529,-75.978,54.0,73,2,4.59,US,1619489170
473,West Fargo,46.875,-96.9004,46.4,76,75,8.05,US,1619489220
474,Greymouth,-42.4667,171.2,54.82,51,40,3.22,NZ,1619489325
475,Gobabis,-22.45,18.9667,61.36,36,1,6.73,NA,1619489325
476,Pushkino,56.0172,37.8667,35.6,75,0,4.47,RU,1619489325
477,Koumac,-20.5667,164.2833,76.98,68,52,20.2,NC,1619489326
478,Makkah al Mukarramah,21.4267,39.8261,81.37,46,0,2.19,SA,1619489326
479,Valdosta,30.8327,-83.2785,71.6,53,1,9.22,US,1619489326
480,Aasiaat,68.7098,-52.8699,31.87,96,94,15.23,GL,1619489326
481,Batouri,4.4333,14.3667,70.45,82,20,1.41,CM,1619489327
482,Nemuro,43.3236,145.575,50.0,37,20,14.97,JP,1619489327
483,Baillif,16.0202,-61.7463,75.2,78,0,5.75,GP,1619489327
484,Amurrio,43.05,-3.0,57.2,100,75,3.44,ES,1619489328
485,Tambun,-6.2641,107.0712,90.0,74,54,4.61,ID,1619489328
486,Xai-Xai,-25.0519,33.6442,66.54,95,9,6.31,MZ,1619489328
487,Chālūs,36.655,51.4204,59.0,94,75,4.47,IR,1619489329
488,Adrar,20.5022,-10.0711,79.84,21,8,11.32,MR,1619489329
489,Arrecife,28.963,-13.5477,64.4,77,20,3.44,ES,1619489329
490,Channel-Port aux Basques,47.5702,-59.1367,39.74,97,100,25.57,CA,1619489329
491,Kostomuksha,64.571,30.5767,25.81,93,100,4.61,RU,1619489330
492,Aleksandrov Gay,50.147,48.5704,45.27,76,100,2.93,RU,1619489330
493,Lagoa,39.05,-27.9833,59.27,89,100,13.69,PT,1619489330
494,Progreso,21.2833,-89.6667,89.6,43,40,11.5,MX,1619489331
495,Meadow Lake,34.8014,-106.5436,73.4,8,75,13.8,US,1619488733
496,Saryg-Sep,51.5,95.6,39.36,44,96,2.64,RU,1619489331
497,Shingū,33.7333,135.9833,64.4,63,75,13.8,JP,1619489259
498,Methóni,36.8197,21.7049,59.0,100,100,3.44,GR,1619489332
499,Oodweyne,9.4092,45.064,67.53,79,100,4.94,SO,1619489332
500,Puerto del Rosario,28.5004,-13.8627,64.4,72,0,4.61,ES,1619489332
501,Atbasar,51.8,68.3333,50.95,82,100,5.79,KZ,1619489333
502,Griffith,41.5284,-87.4237,69.8,42,1,9.22,US,1619489333
503,Shenkursk,62.1091,42.896,37.27,97,100,4.14,RU,1619489333
504,Seondha,26.1578,78.7797,89.26,6,0,4.72,IN,1619489334
505,Port Macquarie,-31.4333,152.9167,73.99,61,1,1.99,AU,1619489167
506,Santa Lucía,27.9117,-15.5407,66.2,77,75,5.75,ES,1619489334
507,Bonavista,48.6499,-53.1147,39.2,81,100,10.36,CA,1619489334
508,Maceió,-9.6658,-35.7353,73.4,94,0,2.3,BR,1619489261
509,Selfoss,63.9331,-20.9971,39.99,87,0,3.44,IS,1619489335
510,Husavik,66.0449,-17.3389,28.4,93,0,4.61,IS,1619489103
511,Zeya,53.75,127.2667,46.29,73,100,7.52,RU,1619489335
512,Dongsheng,39.8161,109.9776,43.63,16,0,25.72,CN,1619489336
513,Port Keats,-14.25,129.55,88.5,57,83,5.7,AU,1619489336
514,Machalí,-34.1833,-70.6667,62.58,30,0,2.08,CL,1619489336
515,Nynäshamn,58.9034,17.9479,33.01,69,90,6.91,SE,1619489337
516,Wanning,18.8003,110.3967,81.0,78,100,6.42,CN,1619489337
517,Teseney,15.11,36.6575,83.66,44,97,11.25,ER,1619489337
518,Jiayuguan City,39.8167,98.3,44.17,19,100,5.57,CN,1619489338
519,Ostrovnoy,68.0531,39.5131,29.12,70,100,13.06,RU,1619489338
520,Mirny,62.5353,113.9611,19.99,63,70,10.29,RU,1619489338
521,Phalombe,-15.8064,35.6507,65.44,95,99,2.01,MW,1619489338
522,Auki,-8.7676,160.7034,83.46,76,100,4.59,SB,1619489339
523,Kungurtug,50.5994,97.5228,31.17,69,24,0.76,RU,1619489339
524,Palmer,42.1584,-72.3287,46.99,39,20,12.66,US,1619489339
525,Kanniyākumāri,8.0833,77.5667,83.61,76,4,9.91,IN,1619489340
526,Abrau-Dyurso,44.69,37.59,33.8,86,21,2.24,RU,1619489340
527,Le Locle,47.0595,6.7523,46.4,65,0,1.14,CH,1619489340
528,Raja,8.4596,25.678,75.61,65,18,6.38,SS,1619489341
529,Bonfim,3.0833,-59.95,77.14,85,100,8.63,BR,1619489341
530,Mahajanga,-15.7167,46.3167,73.4,94,40,3.44,MG,1619489341
531,‘Ewa Beach,21.3156,-158.0072,80.6,57,90,11.5,US,1619489342
532,Fort Royal,14.6089,-61.0733,75.2,78,20,4.61,MQ,1619489342
533,Praia,14.9215,-23.5087,69.8,73,20,11.5,CV,1619489076
534,Mangaratiba,-22.9597,-44.0406,73.4,83,90,2.3,BR,1619489342
535,Mlowo,-9.0,32.9833,57.58,96,83,2.53,TZ,1619489343
536,Kalas,18.1667,74.8,81.03,45,6,3.56,IN,1619489343
537,Muborak,39.2553,65.1528,69.06,38,0,8.08,UZ,1619489343
538,Khovd,48.0056,91.6419,41.02,22,20,1.61,MN,1619489344
539,Verkhniy Avzyan,53.5289,57.5372,37.4,72,100,3.22,RU,1619489344
