,City,Lat,Lng,Max Temp,Humidity,Cloudiness,Wind Speed,Country,Date
0,Severo-Kuril'sk,50.6789,156.125,34.21,96,100,16.17,RU,1619573277
1,Biak,-0.9131,122.8766,82.44,69,7,3.58,ID,1619573277
2,Mahébourg,-20.4081,57.7,77.0,88,75,11.5,MU,1619573278
3,Hermanus,-34.4187,19.2345,53.01,88,86,4.56,ZA,1619573278
4,Vaini,-21.2,-175.2,75.2,83,75,12.66,TO,1619573279
5,Djibo,14.1022,-1.6306,87.49,32,30,7.25,BF,1619573279
6,Barrow,71.2906,-156.7887,19.4,86,90,5.75,US,1619573279
7,Busselton,-33.65,115.3333,63.0,96,6,1.01,AU,1619573280
8,Khatanga,71.9667,102.5,26.31,82,97,7.36,RU,1619573280
9,Upernavik,72.7868,-56.1549,27.36,91,98,9.51,GL,1619573214
10,Villa María,-32.4075,-63.2402,55.99,86,0,3.0,AR,1619573280
11,Arraial do Cabo,-22.9661,-42.0278,73.51,83,90,13.53,BR,1619573281
12,Mataura,-46.1927,168.8643,55.99,86,100,17.0,NZ,1619573281
13,Domanivka,47.6319,30.9885,34.5,92,100,6.35,UA,1619573281
14,Shevchenkove,49.6959,37.1735,37.4,87,0,6.71,UA,1619573282
15,Jamestown,42.097,-79.2353,69.8,46,75,11.5,US,1619573122
16,Rikitea,-23.1203,-134.9692,77.02,74,100,12.26,PF,1619573282
17,Norman Wells,65.282,-126.8329,28.4,29,75,13.8,CA,1619573282
18,Nishihara,26.1842,127.7558,77.0,68,75,11.5,JP,1619573283
19,Nome,64.5011,-165.4064,42.01,65,1,3.44,US,1619573283
20,Atuona,-9.8,-139.0333,80.15,71,17,13.44,PF,1619573238
21,Urubichá,-15.3833,-62.95,67.44,78,23,3.0,BO,1619573283
22,Nanortalik,60.1432,-45.2371,33.71,91,9,6.76,GL,1619573284
23,Mazyr,52.0495,29.2456,30.76,93,14,5.61,BY,1619573284
24,Tuktoyaktuk,69.4541,-133.0374,19.4,63,1,8.05,CA,1619573284
25,Castro,-24.7911,-50.0119,54.14,79,0,2.77,BR,1619573285
26,Punta Arenas,-53.15,-70.9167,42.8,81,75,18.41,CL,1619573049
27,Albany,42.6001,-73.9662,57.0,46,88,0.49,US,1619573285
28,Izazi,-7.2,35.7333,67.98,87,22,1.97,TZ,1619573285
29,Dikson,73.5069,80.5464,31.89,97,100,18.68,RU,1619573286
30,Port Alfred,-33.5906,26.891,64.92,78,100,9.24,ZA,1619573286
31,Daru,-9.0763,143.2092,83.16,77,56,4.74,PG,1619573286
32,Ushuaia,-54.8,-68.3,42.8,93,75,13.8,AR,1619573287
33,Gwadar,25.1216,62.3254,82.09,73,54,10.42,PK,1619573287
34,Bambous Virieux,-20.3428,57.7575,78.01,88,75,11.5,MU,1619573287
35,Mackay,-21.15,149.2,75.99,73,90,14.97,AU,1619573288
36,Geraldton,-28.7667,114.6,68.0,56,2,3.44,AU,1619573288
37,Garoowe,8.4054,48.4845,78.42,72,95,12.06,SO,1619573288
38,Lokosovo,61.1333,74.8167,36.73,79,4,6.71,RU,1619573289
39,Longyearbyen,78.2186,15.6401,17.6,79,75,2.3,SJ,1619573104
40,San Ramon,37.7799,-121.978,73.0,30,1,13.8,US,1619573289
41,Port Blair,11.6667,92.75,78.8,89,40,3.51,IN,1619573289
42,Orlik,52.5178,99.825,31.53,78,99,2.84,RU,1619573290
43,Torbay,47.6666,-52.7314,43.0,87,90,6.91,CA,1619573290
44,Puerto Ayora,-0.7393,-90.3518,75.43,89,34,6.76,EC,1619573290
45,Shimoda,34.6667,138.95,68.0,63,75,12.66,JP,1619573049
46,Monteagudo,-19.8167,-63.9833,61.38,72,98,1.52,BO,1619573291
47,Bokaro Steel City,23.7833,85.9667,85.44,12,0,1.88,IN,1619573291
48,Yellowknife,62.456,-114.3525,19.4,45,75,13.8,CA,1619573088
49,Linhares,-19.3911,-40.0722,71.71,88,80,0.74,BR,1619573292
50,Vila,42.0304,-8.1588,54.0,94,16,2.15,PT,1619573292
51,Kapaa,22.0752,-159.319,78.01,83,90,12.66,US,1619573292
52,Guerrero Negro,27.9769,-114.0611,61.93,67,0,17.47,MX,1619573292
53,Hobart,-42.8794,147.3294,64.0,63,75,9.22,AU,1619573293
54,Makkah al Mukarramah,21.4267,39.8261,80.74,42,0,7.81,SA,1619573293
55,George Town,5.4112,100.3354,84.2,83,20,4.61,MY,1619573268
56,Luís Correia,-2.8792,-41.6669,78.8,86,77,8.79,BR,1619573293
57,Qaanaaq,77.484,-69.3632,35.71,94,100,0.4,GL,1619573294
58,São Filipe,14.8961,-24.4956,72.64,76,0,7.76,CV,1619573294
59,São João da Ponte,-15.9292,-44.0078,71.22,76,74,2.46,BR,1619573294
60,Carnarvon,-24.8667,113.6333,78.8,36,0,8.05,AU,1619573295
61,Cheney,47.4874,-117.5758,62.6,25,90,20.71,US,1619573117
62,Faanui,-16.4833,-151.75,81.86,72,51,10.11,PF,1619573295
63,Talaya,61.3833,152.75,25.18,68,20,1.88,RU,1619573296
64,Souillac,-20.5167,57.5167,77.0,88,75,11.5,MU,1619573296
65,Dingle,10.9995,122.6711,80.26,74,100,8.93,PH,1619573296
66,Auki,-8.7676,160.7034,83.28,71,100,6.35,SB,1619573296
67,Beringovskiy,63.05,179.3167,33.35,98,100,4.5,RU,1619573297
68,Alappuzha,9.49,76.3264,80.26,82,5,4.85,IN,1619573262
69,Husavik,66.0449,-17.3389,32.0,93,0,3.44,IS,1619573297
70,Ağdaş,40.65,47.4761,55.99,84,100,2.46,AZ,1619573297
71,Saldanha,-33.0117,17.9442,55.4,88,100,4.61,ZA,1619573298
72,Butaritari,3.0707,172.7902,82.33,77,90,8.57,KI,1619573298
73,Morón,-34.6534,-58.6198,64.0,84,0,1.01,AR,1619573105
74,Cape Town,-33.9258,18.4232,57.0,94,0,1.14,ZA,1619573298
75,Río Gallegos,-51.6226,-69.2181,46.4,71,0,13.8,AR,1619573299
76,Udachny,66.4167,112.4,22.26,85,30,5.99,RU,1619573299
77,Avarua,-21.2078,-159.775,82.4,78,82,8.05,CK,1619573299
78,Marsh Harbour,26.5412,-77.0636,73.63,65,89,18.66,BS,1619573019
79,Cayenne,4.9333,-52.3333,73.99,94,0,2.3,GF,1619573206
80,Psygansu,43.4194,43.7936,48.2,81,75,4.47,RU,1619573300
81,Flin Flon,54.7682,-101.865,27.25,40,100,8.32,CA,1619573300
82,Tasiilaq,65.6145,-37.6368,37.4,70,20,11.5,GL,1619573300
83,Bluff,-46.6,168.3333,55.99,86,94,17.0,NZ,1619573301
84,Oranjemund,-28.55,16.4333,57.56,95,60,5.82,NA,1619573301
85,Liku,-0.7275,119.8922,84.63,66,17,2.21,ID,1619573301
86,Nouakchott,18.0858,-15.9785,68.0,83,0,13.8,MR,1619573265
87,Ituiutaba,-18.9689,-49.465,69.89,57,0,6.31,BR,1619573302
88,Lukovetskiy,64.2956,41.9211,30.2,74,75,2.24,RU,1619573302
89,Atar,20.5169,-13.0499,80.83,24,100,5.46,MR,1619573302
90,Cabo San Lucas,22.8909,-109.9124,72.0,63,1,5.75,MX,1619573127
91,Tripoli,32.8752,13.1875,69.24,68,100,7.94,LY,1619573303
92,Surovatikha,55.7652,43.8984,35.6,100,90,4.47,RU,1619573303
93,Fairbanks,64.8378,-147.7164,48.99,17,1,10.36,US,1619573303
94,Kumul,42.8,93.45,59.05,15,100,4.32,CN,1619573304
95,Parkes,-33.1333,148.1833,70.0,48,100,5.01,AU,1619573304
96,Barraute,48.4335,-77.6328,50.0,34,90,3.44,CA,1619573304
97,Samarai,-10.6167,150.6667,78.89,81,100,9.64,PG,1619573305
98,Nelson Bay,-32.7167,152.15,72.0,68,40,8.05,AU,1619573305
99,Karasjok,69.4719,25.5112,28.4,80,90,11.5,NO,1619573305
100,Kahului,20.8947,-156.47,78.8,65,40,8.05,US,1619573306
101,Guangming,45.3333,122.7833,51.71,19,87,16.08,CN,1619573306
102,Ponta Delgada,37.7333,-25.6667,59.0,82,75,11.5,PT,1619573306
103,Hithadhoo,-0.6,73.0833,82.31,67,98,2.15,MV,1619573307
104,Abaza,52.655,90.0928,44.4,95,100,5.06,RU,1619573307
105,Kavaratti,10.5669,72.642,83.88,71,8,3.6,IN,1619573307
106,Teluk Nibung,3.001,99.8164,76.23,89,100,3.76,ID,1619573308
107,Lebu,-37.6167,-73.65,55.33,95,15,2.57,CL,1619573308
108,Barth,54.3635,12.7249,37.0,75,75,6.91,DE,1619573308
109,Batavia,41.85,-88.3126,78.8,44,20,11.5,US,1619573108
110,Cockburn Town,21.4612,-71.1419,78.24,74,17,18.75,TC,1619573309
111,Umuarama,-23.7664,-53.325,55.89,51,0,5.97,BR,1619573309
112,San Cristobal,7.7669,-72.225,78.8,100,40,4.61,VE,1619573160
113,Chui,-33.6971,-53.4616,53.31,81,0,5.99,UY,1619573309
114,Mossendjo,-2.9506,12.7261,69.49,98,100,1.05,CG,1619573310
115,Alofi,-19.0595,-169.9187,84.2,79,75,11.5,NU,1619573310
116,Tiksi,71.6872,128.8694,14.72,81,100,10.25,RU,1619573310
117,Copiapó,-27.3667,-70.3333,59.0,77,0,2.3,CL,1619573311
118,Coahuayana Viejo,18.7333,-103.6833,79.27,66,4,4.54,MX,1619573311
119,Morgan City,29.6994,-91.2068,78.01,94,75,9.22,US,1619573080
120,Marawi,7.9986,124.2928,82.99,77,54,5.01,PH,1619573311
121,Puksoozero,62.5903,40.6066,30.49,97,100,4.52,RU,1619573312
122,Seoul,37.5683,126.9778,60.8,72,75,5.75,KR,1619573312
123,Beisfjord,68.3751,17.5988,23.0,100,75,4.61,NO,1619573312
124,Clyde River,70.4692,-68.5914,21.2,73,1,2.3,CA,1619573313
125,Port Lincoln,-34.7333,135.8667,67.75,49,100,3.36,AU,1619573313
126,Pak Phanang,8.3511,100.202,82.4,83,20,2.3,TH,1619573313
127,Touros,-5.1989,-35.4608,77.0,88,20,3.44,BR,1619573313
128,Airai,-8.9266,125.4092,71.11,36,9,1.5,TL,1619573314
129,Yakeshi,49.2833,120.7333,32.02,87,100,16.62,CN,1619573314
130,São Gabriel da Cachoeira,-0.1303,-67.0892,73.29,98,100,1.36,BR,1619573314
131,Sabzawār,36.2126,57.6819,72.59,27,99,6.17,IR,1619573315
132,Fortuna,40.5982,-124.1573,60.01,71,1,16.11,US,1619573315
133,Maceió,-9.6658,-35.7353,77.0,94,75,10.36,BR,1619573214
134,Zhuhai,22.2769,113.5678,79.0,88,40,11.5,CN,1619573315
135,Comodoro Rivadavia,-45.8667,-67.5,64.4,48,0,12.66,AR,1619573316
136,Seymchan,62.8833,152.4333,23.61,82,24,3.85,RU,1619573316
137,Amapá,1.0,-52.0,72.32,98,100,2.64,BR,1619573316
138,Rocky Mountain House,52.3668,-114.9188,35.6,64,100,5.75,CA,1619573206
139,Rancho Palos Verdes,33.7445,-118.387,63.0,55,20,13.8,US,1619573317
140,Thompson,55.7435,-97.8558,23.0,50,75,12.66,CA,1619573302
141,Ribeira Grande,38.5167,-28.7,60.28,82,75,13.51,PT,1619573317
142,Saint-Philippe,-21.3585,55.7679,75.2,83,0,6.91,RE,1619573318
143,Half Moon Bay,37.4636,-122.4286,66.2,76,1,16.11,US,1619573318
144,Bedelē,8.456,36.353,55.35,93,100,1.81,ET,1619573318
145,Ilulissat,69.2167,-51.1,35.6,69,90,3.44,GL,1619573318
146,Marrakesh,31.6315,-8.0083,62.6,72,75,4.61,MA,1619573064
147,São Félix do Xingu,-6.6447,-51.995,73.54,96,100,1.74,BR,1619573319
148,Ibrā’,22.6906,58.5334,78.35,37,100,0.96,OM,1619573319
149,East London,-33.0153,27.9116,64.51,72,100,10.11,ZA,1619573320
150,Talnakh,69.4865,88.3972,27.64,79,100,10.63,RU,1619573320
151,Katsuura,35.1333,140.3,71.6,68,75,17.27,JP,1619573320
152,Hilo,19.7297,-155.09,84.2,48,75,6.91,US,1619573321
153,Aklavik,68.2191,-135.0107,30.2,34,6,5.75,CA,1619573321
154,Zhizdra,53.746,34.7395,32.0,74,14,4.47,RU,1619573321
155,Chokurdakh,70.6333,147.9167,28.63,93,100,4.56,RU,1619573321
156,Carberry,49.8689,-99.3602,62.6,23,40,5.75,CA,1619573322
157,Mount Isa,-20.7333,139.5,82.4,28,0,13.8,AU,1619573322
158,Da Lat,11.9465,108.4419,66.63,82,100,1.9,VN,1619573322
159,New Norfolk,-42.7826,147.0587,64.0,58,94,4.0,AU,1619573323
160,Enshi,30.3,109.4833,62.24,90,100,1.7,CN,1619573323
161,Guiratinga,-16.3494,-53.7583,74.3,71,97,1.74,BR,1619573323
162,Ust-Maya,60.4167,134.5333,34.14,98,100,5.28,RU,1619573324
163,Saint Paul Harbor,57.79,-152.4072,44.6,76,90,23.02,US,1619573324
164,Łobez,53.6392,15.6213,35.01,71,5,1.01,PL,1619573324
165,Jutaí,-5.1833,-68.9,73.62,95,100,1.07,BR,1619573325
166,Mar del Plata,-38.0023,-57.5575,57.0,87,0,10.29,AR,1619573325
167,Necochea,-38.5473,-58.7368,57.99,86,0,7.0,AR,1619573325
168,Muros,42.7762,-9.0603,54.0,77,18,12.62,ES,1619573326
169,Ushtobe,45.2514,77.9838,62.62,32,0,3.24,KZ,1619573326
170,Moose Factory,51.2585,-80.6094,37.4,60,90,5.75,CA,1619573326
171,Constitución,-35.3333,-72.4167,57.27,69,4,9.06,CL,1619573156
172,Cherskiy,68.75,161.3,28.24,79,94,13.22,RU,1619573327
173,Cidreira,-30.1811,-50.2056,59.58,76,3,8.32,BR,1619573327
174,Indramayu,-6.3264,108.32,82.27,72,21,4.97,ID,1619573327
175,Ţahţā,26.7693,31.5021,69.8,32,0,9.22,EG,1619573328
176,Lumeje,-11.55,20.7833,67.05,81,95,4.12,AO,1619573328
177,Fukuechō,32.6881,128.8419,62.6,100,75,3.44,JP,1619573328
178,Kieta,-6.2167,155.6333,86.45,65,79,2.48,PG,1619573328
179,Flinders,-34.5833,150.8552,71.01,68,62,4.0,AU,1619573329
180,Bethel,41.3712,-73.414,59.0,31,1,4.21,US,1619573329
181,Tuban,-6.8976,112.0649,80.8,76,12,5.91,ID,1619573329
182,Dongkan,33.9997,119.8308,64.83,61,100,10.4,CN,1619573330
183,Sorong,-0.8833,131.25,82.69,75,100,3.67,ID,1619573330
184,Iracoubo,5.4802,-53.2011,75.81,89,100,5.57,GF,1619573330
185,Hasaki,35.7333,140.8333,73.0,53,75,12.66,JP,1619573331
186,Bredasdorp,-34.5322,20.0403,48.2,93,100,1.14,ZA,1619573331
187,Bengkulu,-3.8004,102.2655,79.27,79,36,2.37,ID,1619573331
188,College,64.8569,-147.8028,48.99,20,75,5.75,US,1619573332
189,Mehrān,33.1222,46.1646,57.2,54,0,6.46,IR,1619573332
190,Dawson Creek,55.7666,-120.2362,19.4,86,75,12.66,CA,1619573332
191,Tual,-5.6667,132.75,83.34,63,17,2.86,ID,1619573333
192,Chegutu,-18.1302,30.1407,66.63,63,100,4.36,ZW,1619573333
193,Eureka,40.8021,-124.1637,59.0,68,82,3.0,US,1619573333
194,Kholodnyy,62.7167,147.95,23.45,79,71,1.57,RU,1619573334
195,Hambantota,6.1241,81.1185,77.0,100,20,2.3,LK,1619573334
196,Saint George,37.1041,-113.5841,64.4,32,20,18.41,US,1619573334
197,Ketchikan,55.3422,-131.6461,46.4,100,90,19.57,US,1619573335
198,Selma,36.5708,-119.6121,71.6,24,40,4.61,US,1619573335
199,Sitka,57.0531,-135.33,46.4,76,90,3.44,US,1619573335
200,Lata,40.1629,-8.3327,59.0,87,58,3.51,PT,1619573335
201,Tuatapere,-46.1333,167.6833,55.99,86,95,17.0,NZ,1619573336
202,Oktyabr'skiy,54.4815,53.471,38.05,87,50,10.07,RU,1619573336
203,San Patricio,28.017,-97.5169,77.0,94,90,16.11,US,1619573336
204,Meulaboh,4.1363,96.1285,78.87,86,90,4.5,ID,1619573337
205,Bago,17.3367,96.4797,77.0,88,40,3.44,MM,1619573337
206,Coolum Beach,-26.5333,153.1,73.99,80,36,1.99,AU,1619573337
207,Abéché,13.8292,20.8324,80.82,9,0,9.66,TD,1619573338
208,Killam,52.7834,-111.8518,39.2,41,100,11.5,CA,1619573338
209,Pisco,-13.7,-76.2167,64.99,94,0,10.36,PE,1619573338
210,Fairview,40.8126,-73.999,57.99,47,1,5.48,US,1619573339
211,Hokitika,-42.7167,170.9667,56.34,54,26,3.96,NZ,1619573339
212,Laas,46.6166,10.7002,46.99,87,75,5.75,IT,1619573339
213,Usogorsk,63.4106,48.6872,33.62,95,100,2.17,RU,1619573339
214,Verkhotur'ye,58.8627,60.8054,37.18,86,100,5.12,RU,1619573340
215,Panabá,21.2833,-88.2667,84.43,52,7,16.69,MX,1619573340
216,Portland,45.5234,-122.6762,66.2,42,75,4.61,US,1619572803
217,Port Elizabeth,-33.918,25.5701,60.8,88,75,6.91,ZA,1619573340
218,Porto de Moz,-1.7483,-52.2383,74.71,90,100,2.84,BR,1619573341
219,Te Anau,-45.4167,167.7167,44.94,83,100,0.89,NZ,1619573341
220,Alibag,18.6411,72.8792,84.2,79,40,4.61,IN,1619573341
221,Klaksvík,62.2266,-6.589,37.4,87,75,6.91,FO,1619573342
222,Coos Bay,43.3665,-124.2179,60.01,62,1,10.36,US,1619573342
223,Vila Franca do Campo,37.7167,-25.4333,59.0,82,75,11.5,PT,1619573342
224,Tiznit Province,29.5833,-9.5,56.77,83,53,4.12,MA,1619573343
225,Turukhansk,65.8167,87.9833,35.92,88,100,17.76,RU,1619573343
226,Sørland,67.667,12.6934,36.81,64,23,13.58,NO,1619573343
227,Yulara,-25.2406,130.9889,69.8,32,0,14.97,AU,1619573344
228,Bud,39.447,-86.1758,73.99,40,1,9.22,US,1619573344
229,Kelvington,52.1667,-103.5343,37.4,41,100,9.22,CA,1619573344
230,Oil City,41.4339,-79.7064,69.8,37,1,4.61,US,1619573345
231,Juli,-16.2167,-69.45,39.11,56,30,1.23,PE,1619573345
232,Coyhaique,-45.5752,-72.0662,48.2,76,40,6.91,CL,1619573345
233,São José da Coroa Grande,-8.8978,-35.1478,77.34,86,13,6.11,BR,1619573346
234,Ajmer,26.45,74.6333,78.28,26,1,11.39,IN,1619573346
235,Riberalta,-10.9833,-66.1,72.68,83,86,3.02,BO,1619573346
236,Kamaishi,39.2667,141.8833,51.8,62,75,1.14,JP,1619573347
237,Yanam,16.7333,82.2167,82.4,89,20,3.44,IN,1619573347
238,Ilinge,-31.9768,27.0427,51.87,87,100,1.57,ZA,1619573347
239,Hong Kong,22.2855,114.1577,78.01,86,97,1.99,HK,1619573150
240,Haines Junction,60.7522,-137.5108,39.2,24,43,8.05,CA,1619573348
241,Jiuquan,39.7432,98.5174,54.52,14,100,8.01,CN,1619573348
242,Rosetta,31.4044,30.4164,57.2,94,0,3.44,EG,1619573348
243,Yar-Sale,66.8333,70.8333,30.9,94,100,2.35,RU,1619573349
244,Anloga,5.7947,0.8973,82.4,89,20,4.61,GH,1619573349
245,Capitán Bado,-23.2667,-55.5333,55.69,65,0,5.84,PY,1619573349
246,Ponta do Sol,32.6667,-17.1,57.99,82,100,1.99,PT,1619573350
247,Rubiataba,-15.1644,-49.8033,69.55,75,8,3.09,BR,1619573350
248,Ostashkov,57.1467,33.1075,33.71,94,100,5.84,RU,1619573350
249,Laguna,38.421,-121.4238,80.01,14,1,10.36,US,1619573351
250,Stromness,58.965,-3.296,42.8,75,40,9.22,GB,1619573351
251,Kaitangata,-46.2817,169.8464,49.48,62,100,10.33,NZ,1619573351
252,Rocha,-34.4833,-54.3333,51.21,89,0,4.36,UY,1619573351
253,Blairmore,49.6,-114.4353,55.4,33,100,11.5,CA,1619573352
254,Atherton,53.5237,-2.4935,44.01,87,89,4.0,GB,1619573352
255,Waipawa,-41.4122,175.5153,59.0,47,90,9.22,NZ,1619573352
256,Port Hawkesbury,45.6169,-61.3485,39.0,100,90,12.66,CA,1619573353
257,Norrtälje,59.758,18.705,36.0,93,0,1.14,SE,1619573353
258,Bathsheba,13.2167,-59.5167,78.8,65,40,11.5,BB,1619573353
259,Anadyr,64.75,177.4833,32.0,86,75,11.18,RU,1619573354
260,Calama,-22.4667,-68.9333,51.8,28,75,8.05,CL,1619573354
261,Livingston,55.9029,-3.5226,41.0,87,75,8.05,GB,1619573354
262,Shemysheyka,52.892,45.3928,36.0,47,4,11.07,RU,1619573355
263,Chesma,53.8111,60.6533,41.07,81,89,7.38,RU,1619573355
264,Rivers,50.0308,-100.2403,62.6,23,40,5.75,CA,1619573355
265,Bontang,0.1333,117.5,79.9,85,100,2.98,ID,1619573176
266,Saskylakh,71.9167,114.0833,28.13,89,99,11.39,RU,1619573356
267,Walvis Bay,-22.9575,14.5053,60.01,94,0,6.91,NA,1619573356
268,Hamina,60.5697,27.1979,32.0,86,0,4.61,FI,1619573356
269,Casa Nova,-9.4167,-41.1333,80.6,61,0,5.75,BR,1619573357
270,Inhambane,-23.865,35.3833,72.03,85,0,8.59,MZ,1619573357
271,Ludza,56.55,27.7167,36.0,96,100,7.02,LV,1619573357
272,East Retford,53.3221,-0.9432,44.01,87,75,6.91,GB,1619573358
273,Lubao,14.9167,120.55,87.8,62,75,2.3,PH,1619573358
274,Develi,38.3906,35.4922,44.6,87,0,5.75,TR,1619573358
275,Temple,31.0982,-97.3428,75.2,88,90,18.41,US,1619573122
276,Phalaborwa,-23.943,31.1411,68.0,49,0,1.14,ZA,1619573359
277,Aden,12.7794,45.0367,83.05,79,99,15.35,YE,1619573074
278,Aleksandrovsk-Sakhalinskiy,50.8975,142.1561,46.36,57,100,3.18,RU,1619573359
279,Bonnyville,54.2668,-110.735,26.6,59,90,2.59,CA,1619573359
280,Hammerfest,70.6634,23.6821,28.4,80,75,6.91,NO,1619573360
281,Nikolskoye,59.7035,30.7861,35.01,75,75,2.24,RU,1619573360
282,Saurimo,-9.6608,20.3916,63.93,94,65,3.31,AO,1619573360
283,Xiongyue,40.1774,122.1228,54.57,46,0,11.79,CN,1619573361
284,Saint-Augustin,51.226,-58.6502,36.72,99,100,2.75,CA,1619573361
285,Okhotsk,59.3833,143.3,30.54,79,100,1.12,RU,1619573361
286,Óbidos,-1.9175,-55.5181,74.57,94,100,1.74,BR,1619573361
287,Guane,22.2025,-84.0875,77.22,66,7,2.62,CU,1619573362
288,Rayong,12.8333,101.4333,86.0,94,75,3.44,TH,1619573362
289,Boende,-0.2167,20.8667,72.73,93,100,2.86,CD,1619573363
290,Ankpa,7.3706,7.6253,75.83,89,100,7.23,NG,1619573363
291,Isangel,-19.55,169.2667,78.8,73,40,11.5,VU,1619573363
292,Bereda,43.2686,-7.5406,50.0,96,100,7.0,ES,1619573364
293,Lagoa,39.05,-27.9833,59.72,78,100,12.37,PT,1619573364
294,Khovd,48.0056,91.6419,48.07,30,100,6.24,MN,1619573364
295,Vysokogornyy,50.1167,139.15,46.67,63,100,5.79,RU,1619573365
296,Tieli,46.95,128.05,55.27,25,18,13.47,CN,1619573365
297,Manyana,-23.4,21.7167,65.44,33,29,7.11,BW,1619573365
298,Mangan,27.5167,88.5333,73.72,46,94,3.27,IN,1619573366
299,Balaipungut,1.05,101.2833,80.6,83,100,4.61,ID,1619573366
300,Omboué,-1.5746,9.2618,79.52,89,100,3.22,GA,1619573366
301,Okulovka,58.4008,33.2908,32.72,98,100,4.59,RU,1619573366
302,Buala,-8.145,159.5921,83.66,73,74,4.09,SB,1619573367
303,Lompoc,34.6391,-120.4579,60.8,55,0,12.66,US,1619573208
304,Los Alamos,35.8881,-106.307,53.01,30,40,4.61,US,1619573123
305,Asău,46.4333,26.4,41.0,87,0,3.44,RO,1619573367
306,Khudumelapye,-23.8833,24.75,61.86,25,0,7.0,BW,1619573368
307,Southbridge,42.0751,-72.0334,60.8,31,40,4.61,US,1619573186
308,Arrondissement de Rochefort,45.9167,-1.0,51.8,76,0,6.91,FR,1619573368
309,Pevek,69.7008,170.3133,21.52,91,100,9.95,RU,1619573369
310,Mae Sai,20.4335,99.8762,79.0,83,75,4.61,TH,1619573369
311,Merauke,-8.4667,140.3333,83.73,71,31,3.06,ID,1619573216
312,Robertsport,6.7533,-11.3686,75.69,89,100,16.15,LR,1619573370
313,Garden City,42.3256,-83.331,75.2,38,75,10.36,US,1619573370
314,Vallenar,-28.5708,-70.7581,59.34,82,27,2.77,CL,1619573370
315,Mount Gambier,-37.8333,140.7667,59.0,77,100,5.75,AU,1619573370
316,Kajaani,64.2273,27.7285,24.8,100,86,1.14,FI,1619573371
317,Mehendiganj,22.8167,90.5333,81.99,80,4,9.35,BD,1619573371
318,Kambove,-10.8764,26.5969,59.41,95,37,3.65,CD,1619573371
319,Tessalit,20.1986,1.0114,88.84,14,5,4.14,ML,1619573372
320,Minyar,55.0709,57.5485,41.14,94,89,9.93,RU,1619573372
321,Huarmey,-10.0681,-78.1522,68.29,85,85,8.57,PE,1619573372
322,Kruisfontein,-34.0033,24.7314,54.0,92,100,1.99,ZA,1619573373
323,Bambanglipuro,-7.95,110.2833,81.34,74,50,12.24,ID,1619573373
324,Vicksburg,32.3526,-90.8779,78.8,94,1,4.61,US,1619573373
325,Ugoofaaru,5.6667,73.0,83.25,73,89,6.08,MV,1619573374
326,Malokakhovka,46.7814,33.4479,41.05,90,100,13.82,UA,1619573374
327,Kolosovka,56.4678,73.611,46.92,87,100,1.43,RU,1619573374
328,Yuanping,38.7153,112.7575,53.83,20,0,3.69,CN,1619573375
329,Moratuwa,6.773,79.8816,80.6,89,40,4.14,LK,1619573375
330,Vardø,70.3705,31.1107,29.34,71,100,17.43,NO,1619573375
331,Kul'dur,49.2167,131.6333,46.29,88,100,2.93,RU,1619573375
332,Olafsvik,64.8945,-23.7142,44.24,74,98,3.8,IS,1619573376
333,Provideniya,64.3833,-173.3,32.0,86,90,11.18,RU,1619573376
334,Makaha,21.4694,-158.2175,82.4,54,1,14.97,US,1619573376
335,Komatipoort,-25.4332,31.9548,63.0,77,0,3.69,ZA,1619573377
336,Verāval,20.9,70.3667,79.72,77,0,10.0,IN,1619573377
337,Praia,14.9215,-23.5087,71.6,78,75,16.11,CV,1619573378
338,Anuradhapura,8.3565,80.4173,76.1,94,93,3.91,LK,1619573378
339,Shatalovo,54.334,32.4465,34.43,98,100,7.99,RU,1619573378
340,La Ronge,55.1001,-105.2842,24.8,30,100,8.05,CA,1619573378
341,Iqaluit,63.7506,-68.5145,21.2,79,1,2.3,CA,1619573379
342,Makīnsk,52.6292,70.4169,55.22,81,89,16.69,KZ,1619573379
343,Esperance,-33.8667,121.9,64.4,100,66,2.35,AU,1619573380
344,Lucea,18.451,-78.1736,80.6,57,20,6.91,JM,1619573380
345,Lodja,-3.4833,23.4333,69.53,98,59,2.04,CD,1619573380
346,Enid,36.3956,-97.8784,71.6,83,20,18.41,US,1619573381
347,Srednekolymsk,67.45,153.6833,30.38,84,25,5.66,RU,1619573215
348,Harrison,30.4091,-89.0436,73.4,83,20,10.36,US,1619573287
349,Kaitong,44.8135,123.15,52.34,22,27,16.82,CN,1619573381
350,Almaznyy,48.0448,40.045,46.4,81,40,11.18,RU,1619573381
351,Ca Mau,9.1769,105.15,84.22,70,100,5.66,VN,1619573382
352,Shorāpur,16.5167,76.75,84.13,39,2,6.06,IN,1619573382
353,Tromsø,69.6496,18.957,28.4,93,75,3.44,NO,1619573382
354,Arlit,18.7369,7.3853,88.92,9,0,11.86,NE,1619573383
355,Ancud,-41.8697,-73.8203,55.0,94,90,2.3,CL,1619573383
356,Pontianak,-0.0333,109.3333,78.8,94,40,4.61,ID,1619573338
357,Anito,12.4497,125.2886,81.68,71,58,6.15,PH,1619573383
358,Juneau,58.3019,-134.4197,44.6,76,90,5.75,US,1619573384
359,Yima,34.7381,111.8839,63.45,29,0,14.29,CN,1619573384
360,Galesong,-5.3166,119.3661,84.2,74,20,3.44,ID,1619573384
361,Kautokeino,69.0125,23.0412,7.86,96,85,3.31,NO,1619573384
362,Novikovo,51.1537,37.8879,36.39,71,100,5.68,RU,1619573385
363,Marzuq,14.4,46.4667,72.01,67,94,3.36,YE,1619573385
364,Sisimiut,66.9395,-53.6735,31.91,92,23,5.28,GL,1619573385
365,Antofagasta,-23.65,-70.4,62.6,63,0,5.75,CL,1619573386
366,Buchanan,5.8808,-10.0467,73.4,94,75,4.61,LR,1619573386
367,Askarovo,53.3372,58.5089,35.6,100,40,8.95,RU,1619573386
368,Nipawin,53.3668,-104.0009,32.0,51,1,8.05,CA,1619573301
369,San Policarpo,12.1791,125.5072,81.28,70,42,7.38,PH,1619573387
370,Sobolevo,54.4299,31.8996,35.06,98,100,7.63,RU,1619573387
371,Myitkyina,25.3833,97.4,85.44,31,47,0.2,MM,1619573387
372,Rio Grande,-32.035,-52.0986,59.77,74,17,9.89,BR,1619573388
373,Itigi,-5.7,34.4833,61.07,97,86,5.86,TZ,1619573388
374,Saint-Pierre,-21.3393,55.4781,75.2,83,0,6.91,RE,1619573388
375,Sylvan Lake,52.3168,-114.0853,42.8,49,1,10.36,CA,1619573312
376,Cortez,37.3489,-108.5859,48.2,49,1,9.22,US,1619573389
377,Rumonge,-3.9736,29.4386,69.64,88,100,2.19,BI,1619573389
378,Oussouye,12.485,-16.5469,73.4,73,0,4.61,SN,1619573389
379,Tazmalt,36.3868,4.3989,58.71,79,6,0.6,DZ,1619573390
380,Nara,34.6851,135.8049,61.0,82,75,4.61,JP,1619573242
381,Skorodnoye,51.071,37.2276,33.8,80,0,6.71,RU,1619573390
382,Russell,32.3502,-85.1999,75.2,83,1,4.14,US,1619573390
383,Hamilton,39.1834,-84.5333,73.99,46,90,9.22,US,1619573269
384,Bariloche,-41.1456,-71.3082,55.4,71,75,12.66,AR,1619573153
385,Plettenberg Bay,-34.0527,23.3716,59.32,85,99,0.56,ZA,1619573391
386,Gisborne,-38.6533,178.0042,55.99,73,100,3.0,NZ,1619573391
387,Bilma,18.6853,12.9164,84.42,12,0,2.57,NE,1619573392
388,Ostrov,57.3439,28.3537,37.4,93,95,6.71,RU,1619573392
389,Dehlorān,32.6941,47.2679,78.28,37,100,4.45,IR,1619573392
390,Fort Nelson,58.8053,-122.7002,19.4,68,90,2.3,CA,1619573392
391,Hualmay,-11.0964,-77.6139,66.83,87,99,10.58,PE,1619573393
392,Lashio,22.9333,97.75,77.38,48,5,1.03,MM,1619573393
393,Priiskovyy,51.9333,116.6333,29.77,61,100,10.96,RU,1619573393
394,Korla,41.7597,86.1469,60.82,31,47,2.8,CN,1619573394
395,Balgazyn,51.0,95.2,40.17,85,100,3.29,RU,1619573394
396,Verkhoyansk,67.5447,133.385,19.51,78,93,3.91,RU,1619573394
397,Arman',59.7,150.1667,29.57,73,13,1.39,RU,1619573395
398,Mbandaka,0.0487,18.2603,72.37,94,100,2.35,CD,1619573395
399,Mehamn,71.0357,27.8492,27.1,73,100,15.41,NO,1619573395
400,Taoudenni,22.6783,-3.9836,90.66,16,23,9.15,ML,1619573396
401,Gornopravdinsk,60.05,69.9,38.1,79,100,3.31,RU,1619573396
402,Manzanillo,20.3433,-77.1167,79.41,60,38,10.58,CU,1619573396
403,Port Keats,-14.25,129.55,86.79,58,14,10.27,AU,1619573396
404,Monrovia,6.3005,-10.7969,73.4,94,75,4.61,LR,1619573397
405,Nouadhibou,20.931,-17.0347,64.4,94,0,10.36,MR,1619573397
406,Las Vegas,36.175,-115.1372,69.01,24,40,5.75,US,1619573183
407,Sur,22.5667,59.5289,86.23,35,90,9.84,OM,1619573397
408,Haapiti,-17.5667,-149.8667,86.0,58,75,6.91,PF,1619573398
409,Vanimo,-2.6741,141.3028,85.8,65,2,2.35,PG,1619573398
410,Chicama,-7.8447,-79.1469,64.4,88,40,9.22,PE,1619573398
411,Paka,4.6374,103.4368,82.4,83,20,3.62,MY,1619573399
412,Hwange,-18.3693,26.5019,70.52,60,99,1.36,ZW,1619573399
413,Acaraú,-2.8856,-40.12,77.97,83,94,9.01,BR,1619573399
414,Muskegon,43.3,-86.1334,69.8,52,90,6.91,US,1619573400
415,Talcahuano,-36.7167,-73.1167,57.2,88,0,2.3,CL,1619573116
416,Araouane,18.9048,-3.5265,89.55,11,0,9.08,ML,1619573400
417,Hirara,24.8,125.2833,77.0,65,40,12.66,JP,1619573401
418,Durban,-29.8579,31.0292,71.01,77,40,4.61,ZA,1619573401
419,Coquimbo,-29.9533,-71.3436,55.4,94,0,4.07,CL,1619573401
420,Faya,18.3851,42.4509,59.0,77,0,2.44,SA,1619573402
421,Sanok,49.5557,22.2056,32.0,89,9,3.29,PL,1619573404
422,Söderhamn,61.3037,17.0592,30.0,93,50,4.23,SE,1619573404
423,Donegal,54.65,-8.1167,42.73,81,72,7.76,IE,1619573404
424,Zahir Pir,28.8124,70.524,88.36,18,63,7.36,PK,1619573405
425,Carutapera,-1.195,-46.02,77.52,87,100,4.68,BR,1619573405
426,Lorengau,-2.0226,147.2712,85.98,65,12,7.18,PG,1619573405
427,Lüderitz,-26.6481,15.1594,58.17,85,12,9.8,NA,1619573406
428,Pangnirtung,66.1451,-65.7125,14.59,88,6,7.07,CA,1619573406
429,Upata,8.0086,-62.3989,82.0,72,90,5.01,VE,1619573406
430,Kavieng,-2.5744,150.7967,84.15,69,36,6.38,PG,1619573407
431,Nicoya,10.1483,-85.452,84.2,51,0,11.5,CR,1619573407
432,San Rafael,-34.6177,-68.3301,64.0,55,0,8.52,AR,1619573407
433,Padang,-0.9492,100.3543,78.8,89,40,3.44,ID,1619573408
434,Bagdarin,54.4333,113.6,26.24,45,100,9.24,RU,1619573408
435,Ostrovnoy,68.0531,39.5131,22.17,86,100,8.01,RU,1619573408
436,Dhaka,23.7104,90.4074,86.0,66,75,9.22,BD,1619573143
437,Leh,34.1667,77.5833,33.04,37,8,2.75,IN,1619573137
438,Pastavy,55.1168,26.8326,36.03,97,99,6.38,BY,1619573409
439,Simi,9.5667,-12.35,77.72,65,87,4.21,SL,1619573409
440,Mīnjūr,13.2667,80.2667,82.4,83,20,3.44,IN,1619573409
441,Kaeo,-35.1,173.7833,66.0,64,73,4.0,NZ,1619573410
442,Kokopo,-4.352,152.2633,84.16,67,11,6.04,PG,1619573410
443,Malé,4.1748,73.5089,84.2,84,75,5.75,MV,1619573289
444,Sheridan,44.8333,-106.9173,57.2,35,1,1.68,US,1619573410
445,Aliwal North,-30.6937,26.7114,48.25,49,35,1.97,ZA,1619573411
446,Berdigestyakh,62.0989,126.6992,24.17,72,97,10.6,RU,1619573411
447,Cap Malheureux,-19.9842,57.6142,78.01,84,100,7.0,MU,1619573411
448,Port Hedland,-20.3167,118.5667,87.8,15,0,16.11,AU,1619573412
449,Jackson,42.4165,-122.8345,71.6,15,1,5.75,US,1619573115
450,Mogadishu,2.0371,45.3438,82.8,75,95,10.51,SO,1619573412
451,Malanje,-9.5402,16.341,63.32,93,99,1.14,AO,1619573412
452,Melenki,55.3343,41.6295,33.85,97,100,10.71,RU,1619573413
453,Puerto Colombia,10.9878,-74.9547,80.6,78,75,13.8,CO,1619573413
454,Misratah,32.3754,15.0925,79.09,34,75,13.67,LY,1619573413
455,Kununurra,-15.7667,128.7333,87.8,70,12,5.75,AU,1619573414
456,Karratha,-20.7377,116.8463,87.6,18,0,16.98,AU,1619573414
457,Sinegor'ye,62.0788,150.477,30.47,80,8,0.76,RU,1619573414
458,Amudat,1.95,34.95,68.0,76,69,3.67,UG,1619573415
459,Prado,-17.3411,-39.2208,74.84,78,15,6.8,BR,1619573415
460,City of San Pedro,14.35,121.0167,87.8,55,20,4.61,PH,1619573415
461,Narsaq,60.9167,-46.05,41.0,70,4,6.91,GL,1619573416
462,Inuvik,68.3499,-133.7218,30.2,34,6,5.75,CA,1619573416
463,Houston,29.7633,-95.3633,77.0,83,90,24.16,US,1619572997
464,Ende,-8.8432,121.6623,84.74,50,9,1.68,ID,1619573416
465,Kargasok,59.0556,80.8572,42.85,81,100,2.04,RU,1619573417
466,Grand Gaube,-20.0064,57.6608,78.01,84,100,7.0,MU,1619573417
467,Avera,33.194,-82.5271,71.6,68,1,5.75,US,1619573418
468,Joaíma,-16.6542,-41.0306,69.91,74,12,1.77,BR,1619573418
469,Vao,-22.6667,167.4833,73.96,51,0,15.93,NC,1619573418
470,Jāmadoba,23.7167,86.4,92.35,12,0,2.35,IN,1619573418
471,Tilichiki,60.4667,166.1,29.23,82,100,8.16,RU,1619573419
472,Sakakah,29.9697,40.2064,62.6,27,0,4.61,SA,1619573419
473,Varhaug,58.6147,5.6457,34.0,93,0,4.76,NO,1619573419
474,Acambay,19.9558,-99.8417,59.41,69,94,8.5,MX,1619573420
475,Luocheng,29.3848,104.0286,59.36,93,100,5.73,CN,1619573420
476,Pahlgām,34.0333,75.3333,48.72,52,31,5.7,IN,1619573420
477,Los Llanos de Aridane,28.6585,-17.9182,64.4,63,75,4.61,ES,1619573421
478,Paraty,-23.2178,-44.7131,69.89,97,97,1.68,BR,1619573421
479,Margate,51.3813,1.3862,46.0,81,7,1.01,GB,1619573421
480,Zhezkazgan,47.8043,67.7144,53.6,43,0,11.18,KZ,1619573422
481,Santa Maria,-29.6842,-53.8069,51.8,100,0,1.14,BR,1619573422
482,Concepción del Uruguay,-32.4825,-58.2372,57.99,83,0,5.44,AR,1619573358
483,Camopi,3.1655,-52.3158,71.85,99,99,2.17,GF,1619573422
484,Sungai Penuh,-2.0833,101.3833,74.79,72,89,0.49,ID,1619573423
485,Noumea,-22.2763,166.4572,77.0,47,0,16.11,NC,1619573403
486,Capão da Canoa,-29.7456,-50.0097,58.41,70,0,7.67,BR,1619573423
487,Pala,9.3642,14.9046,80.78,46,100,4.97,TD,1619573424
488,Hrodna,53.6884,23.8258,33.82,89,93,3.69,BY,1619573424
489,Epe,6.5841,3.9834,79.57,90,100,5.82,NG,1619573424
490,Versailles,48.8,2.1333,51.01,65,0,2.3,FR,1619573425
491,Catumbela,-12.4314,13.5472,79.36,79,99,4.21,AO,1619573425
492,Vostok,46.4856,135.8833,42.4,86,100,4.52,RU,1619573425
493,Sioux Lookout,50.1001,-91.917,51.8,50,20,2.01,CA,1619573426
494,Chute-aux-Outardes,49.1168,-68.399,37.4,100,1,3.44,CA,1619573426
495,Kloulklubed,7.0419,134.2556,84.2,79,75,4.61,PW,1619573426
496,Harper,4.375,-7.7169,79.74,86,100,7.11,LR,1619573427
497,Andenes,69.3143,16.1194,28.4,93,75,4.61,NO,1619573427
498,Port Augusta,-32.5,137.7667,66.2,68,30,8.05,AU,1619573427
499,Alugan,12.2188,125.4808,81.93,70,63,7.25,PH,1619573428
500,Arrondissement de Provins,48.5833,3.1667,41.0,70,0,2.3,FR,1619573428
501,Thinadhoo,0.5333,72.9333,82.2,66,100,2.98,MV,1619573429
502,Markova,48.6758,24.4138,27.73,92,26,3.87,UA,1619573429
503,Redlands,34.0556,-117.1825,68.0,34,75,14.97,US,1619573257
504,Pangkalanbuun,-2.6833,111.6167,79.52,88,99,2.46,ID,1619573429
505,Nizwá,22.9333,57.5333,79.39,30,100,0.51,OM,1619573430
506,Jais,26.25,81.5333,91.69,7,0,8.21,IN,1619573430
507,Dzhebariki-Khaya,62.2167,135.8,34.83,100,100,2.3,RU,1619573430
508,Conceição do Araguaia,-8.2578,-49.2647,77.0,88,0,2.3,BR,1619573430
509,Solnechnyy,50.7214,136.6319,51.66,63,100,3.33,RU,1619573431
510,Bukama,-9.2,25.85,67.53,95,31,2.1,CD,1619573431
511,Zakupne,49.1194,26.3376,33.01,57,6,5.39,UA,1619573431
512,Chardara,41.2547,67.9692,70.23,41,0,3.76,KZ,1619573432
513,North Myrtle Beach,33.816,-78.68,69.01,88,84,1.01,US,1619573394
514,Nurmijärvi,60.4641,24.8073,28.99,93,0,6.91,FI,1619573432
515,Port Macquarie,-31.4333,152.9167,73.0,66,4,7.54,AU,1619573257
516,Afyonkarahisar,38.75,30.6667,53.04,45,70,3.74,TR,1619573433
517,Mikuni,36.2171,136.1519,60.8,77,90,8.05,JP,1619573433
518,Leer,8.3018,30.1418,82.08,54,98,5.39,SS,1619573433
519,Gizo Government Station,-8.103,156.8419,80.58,80,94,13.6,SB,1619573434
520,Sistranda,63.7256,8.834,32.0,93,40,4.61,NO,1619573434
521,Maragogi,-9.0122,-35.2225,76.93,87,10,5.55,BR,1619573179
522,West Plains,36.7281,-91.8524,71.6,73,75,11.5,US,1619573348
523,Steinbach am Taunus,50.1667,8.5667,50.0,49,0,9.22,DE,1619573435
524,Iki-Burul,45.8208,44.6472,42.8,75,100,6.71,RU,1619573435
525,Alabaster,33.2443,-86.8164,72.0,60,1,4.81,US,1619573435
526,Conde,-7.2597,-34.9075,77.0,94,20,4.61,BR,1619573436
527,Jumla,29.2747,82.1838,59.32,41,6,1.68,NP,1619573436
528,Kirovsk,48.6375,38.6428,38.37,96,100,8.43,UA,1619573436
529,Turangi,-39.0,175.9333,54.05,51,75,3.83,NZ,1619573437
530,Vila Velha,-20.3297,-40.2925,77.0,78,20,5.75,BR,1619573435
531,Portales,34.1862,-103.3344,72.0,13,20,14.97,US,1619573437
532,Qaqortoq,60.7167,-46.0333,41.0,70,6,6.91,GL,1619573437
533,Rosarito,32.3333,-117.0333,62.6,55,1,18.41,MX,1619573438
534,Saint-Joseph,-21.3667,55.6167,75.2,83,0,6.91,RE,1619573438
535,Fairmont,39.4851,-80.1426,75.2,38,1,3.44,US,1619573438
536,Ellisras,-23.6649,27.7443,58.73,31,0,2.39,ZA,1619573439
537,Gobabis,-22.45,18.9667,63.55,45,2,10.87,NA,1619573439
538,Lavrentiya,65.5833,-171.0,32.13,93,100,4.25,RU,1619573439
539,Vung Tau,10.346,107.0843,84.2,71,100,14.38,VN,1619573440
540,Khorixas,-20.3667,14.9667,66.24,51,0,0.81,NA,1619573440
541,Umluj,25.0213,37.2685,75.94,64,0,6.87,SA,1619573440
542,Altea,38.5989,-0.0514,60.01,88,13,4.25,ES,1619573441
543,St. George's,12.0564,-61.7485,80.6,78,20,21.85,GD,1619573441
544,Mananjary,-21.2167,48.3333,70.65,92,18,4.61,MG,1619573441
545,Xai-Xai,-25.0519,33.6442,68.07,77,0,4.81,MZ,1619573441
546,Bath,51.3779,-2.3591,46.99,94,100,1.99,GB,1619573357
547,Seydişehir,37.4193,31.8453,56.16,45,41,3.89,TR,1619573442
548,Kralendijk,12.15,-68.2667,80.6,78,20,11.5,BQ,1619573414
549,Natal,-5.795,-35.2094,78.8,89,20,6.91,BR,1619573272
550,Gouré,13.9835,10.2704,80.17,13,5,10.47,NE,1619573442
551,Tabou,4.423,-7.3528,79.07,88,100,7.83,CI,1619573443
552,Ciuchici,44.9414,21.61,53.01,93,0,4.61,RO,1619573443
553,Vestmannaeyjar,63.4427,-20.2734,43.57,78,4,19.55,IS,1619573443
554,Baoqing,46.3317,132.2111,50.83,69,100,6.55,CN,1619573444
555,Diamantino,-14.4086,-56.4461,71.46,78,100,4.74,BR,1619573444
556,Najrān,17.4924,44.1277,71.6,68,40,1.86,SA,1619573444
557,San Quintín,30.4833,-115.95,57.07,70,13,16.28,MX,1619573444
558,Varna,43.2167,27.9167,48.2,87,75,6.91,BG,1619573445
559,Jinka,5.65,36.65,62.73,76,14,2.73,ET,1619573445
560,Mathathane,-22.2687,28.7495,61.36,33,0,1.12,BW,1619573445
561,Kirkenær,60.4564,12.0582,28.4,64,0,3.44,NO,1619573446
562,Tāybād,34.74,60.7756,72.7,16,6,5.77,IR,1619573446
563,Bubaque,11.2833,-15.8333,78.49,65,100,17.4,GW,1619573446
564,Dunmore East,52.1514,-6.9861,46.99,91,50,3.0,IE,1619573447
565,Mitú,1.1983,-70.1733,71.26,99,93,2.37,CO,1619573447
566,Vitória da Conquista,-14.8661,-40.8394,64.47,70,1,4.68,BR,1619573289
